[
	{
		"province": "北京市",
		"city": "北京市",
		"name": "八达岭机场",
		"address": "北京市延庆县",
		"location": {
			"latitude": 40.386131413606,
			"longitude": 115.94913563798
		},
		"published": true,
		"type": "AERODROME",
		"description": ""
	},
	{
		"province": "北京市",
		"city": "北京市",
		"name": "密云机场",
		"address": "北京市密云县",
		"location": {
			"latitude": 40.407430668,
			"longitude": 116.89570441141
		},
		"published": true,
		"type": "AERODROME",
		"description": ""
	},
	{
		"province": "北京市",
		"city": "北京市",
		"name": "定陵机场",
		"address": "北京市昌平区X027",
		"location": {
			"latitude": 40.302156352072,
			"longitude": 116.25886034676
		},
		"published": true,
		"type": "AERODROME",
		"description": ""
	},
	{
		"province": "北京市",
		"city": "北京市",
		"name": "平谷金海湖机场",
		"address": "北京市平谷区S330(昌金路)",
		"location": {
			"latitude": 40.20417987151,
			"longitude": 117.25865363791
		},
		"published": true,
		"type": "AERODROME",
		"description": ""
	},
	{
		"province": "北京市",
		"city": "北京市",
		"name": "北安河机场",
		"address": "北京市海淀区",
		"location": {
			"latitude": 40.082458118368,
			"longitude": 116.13204509711
		},
		"published": true,
		"type": "AERODROME",
		"description": ""
	},
	{
		"province": "天津市",
		"city": "天津市",
		"name": "天津塘沽机场",
		"address": "天津市滨海新区S50(津晋高速)",
		"location": {
			"latitude": 38.911749177024,
			"longitude": 117.68519576167
		},
		"published": true,
		"type": "AERODROME",
		"description": ""
	},
	{
		"province": "天津市",
		"city": "天津市",
		"name": "窦庄机场",
		"address": "天津市滨海新区窦太路",
		"location": {
			"latitude": 38.578103598168,
			"longitude": 117.34043251556
		},
		"published": true,
		"type": "AERODROME",
		"description": ""
	},
	{
		"province": "天津市",
		"city": "天津市",
		"name": "天津滨海东方通用直升机场",
		"address": "天津市滨海新区泰达大街",
		"location": {
			"latitude": 39.046154807183,
			"longitude": 117.70151225518
		},
		"published": true,
		"type": "AERODROME",
		"description": ""
	},
	{
		"province": "河北省",
		"city": "沧州市",
		"name": "河北黄骅防蝗机场",
		"address": "河北省沧州市黄骅市",
		"location": {
			"latitude": 38.433727594105,
			"longitude": 117.32533321143
		},
		"published": true,
		"type": "AERODROME",
		"description": ""
	},
	{
		"province": "河北省",
		"city": "承德市",
		"name": "河北平泉机场",
		"address": "河北省承德市平泉县",
		"location": {
			"latitude": 40.907925077104,
			"longitude": 118.6874600469
		},
		"published": true,
		"type": "AERODROME",
		"description": ""
	},
	{
		"province": "河北省",
		"city": "石家庄市",
		"name": "石家庄栾城机场",
		"address": "河北省石家庄市栾城县G4(京港澳高速)",
		"location": {
			"latitude": 37.919629417247,
			"longitude": 114.60325895639
		},
		"published": true,
		"type": "AERODROME",
		"description": ""
	},
	{
		"province": "河北省",
		"city": "唐山市",
		"name": "迁安五重安机场",
		"address": "河北省唐山市迁安市",
		"location": {
			"latitude": 40.196445535943,
			"longitude": 118.6443595027
		},
		"published": true,
		"type": "AERODROME",
		"description": ""
	},
	{
		"province": "河北省",
		"city": "张家口市",
		"name": "张北中都机场",
		"address": "河北省张家口市张北县",
		"location": {
			"latitude": 41.31512171002,
			"longitude": 114.74007535824
		},
		"published": true,
		"type": "AERODROME",
		"description": ""
	},
	{
		"province": "河南省",
		"city": "郑州市",
		"name": "郑州上街机场",
		"address": "河南省郑州市荥阳市",
		"location": {
			"latitude": 34.849180993994,
			"longitude": 113.29647173501
		},
		"published": true,
		"type": "AERODROME",
		"description": ""
	},
	{
		"province": "河南省",
		"city": "安阳市",
		"name": "安阳北郊机场",
		"address": "河南省安阳市北关区灵安线",
		"location": {
			"latitude": 36.140956377965,
			"longitude": 114.37140198407
		},
		"published": true,
		"type": "AERODROME",
		"description": ""
	},
	{
		"province": "河南省",
		"city": "安阳市",
		"name": "中宇直升机场",
		"address": "河南省安阳市林州市",
		"location": {
			"latitude": 36.103416997512,
			"longitude": 113.77556101599
		},
		"published": true,
		"type": "AERODROME",
		"description": ""
	},
	{
		"province": "辽宁省",
		"city": "沈阳市",
		"name": "沈阳苏家屯红宝山机场",
		"address": "辽宁省沈阳市苏家屯区前三线",
		"location": {
			"latitude": 41.557507796218,
			"longitude": 123.41438138665
		},
		"published": true,
		"type": "AERODROME",
		"description": ""
	},
	{
		"province": "辽宁省",
		"city": "沈阳市",
		"name": "辽中机场",
		"address": "辽宁省沈阳市辽中县",
		"location": {
			"latitude": 41.509664127592,
			"longitude": 122.77340817698
		},
		"published": true,
		"type": "AERODROME",
		"description": ""
	},
	{
		"province": "辽宁省",
		"city": "沈阳市",
		"name": "新民农用机场",
		"address": "辽宁省沈阳市新民市",
		"location": {
			"latitude": 42.051231658291,
			"longitude": 122.87518909945
		},
		"published": true,
		"type": "AERODROME",
		"description": ""
	},
	{
		"province": "辽宁省",
		"city": "沈阳市",
		"name": "财湖机场",
		"address": "辽宁省沈阳市法库县",
		"location": {
			"latitude": 42.406609690732,
			"longitude": 123.39953998265
		},
		"published": true,
		"type": "AERODROME",
		"description": ""
	},
	{
		"province": "辽宁省",
		"city": "鞍山市",
		"name": "鞍山新开河通用机场",
		"address": "辽宁省鞍山市台安县何路线",
		"location": {
			"latitude": 41.343174600559,
			"longitude": 122.48157132665
		},
		"published": true,
		"type": "AERODROME",
		"description": ""
	},
	{
		"province": "辽宁省",
		"city": "沈阳市",
		"name": "东塔机场",
		"address": "辽宁省沈阳市大东区",
		"location": {
			"latitude": 41.798381951595,
			"longitude": 123.51466700883
		},
		"published": true,
		"type": "AERODROME",
		"description": ""
	},
	{
		"province": "辽宁省",
		"city": "大连市",
		"name": "长海机场",
		"address": "辽宁省大连市长海县",
		"location": {
			"latitude": 39.280691792846,
			"longitude": 122.68766674471
		},
		"published": true,
		"type": "AERODROME",
		"description": ""
	},
	{
		"province": "辽宁省",
		"city": "营口市",
		"name": "营口机场",
		"address": "辽宁省营口市老边区",
		"location": {
			"latitude": 40.557664879747,
			"longitude": 122.3718041936
		},
		"published": true,
		"type": "AERODROME",
		"description": ""
	},
	{
		"province": "上海市",
		"city": "上海市",
		"name": "上海国际赛车场直升机场",
		"address": "上海市嘉定区白银路",
		"location": {
			"latitude": 31.348106177765,
			"longitude": 121.24181984034
		},
		"published": true,
		"type": "AERODROME",
		"description": ""
	},
	{
		"province": "江苏省",
		"city": "徐州市",
		"name": "徐州杨庙农用机场",
		"address": "江苏省徐州市沛县",
		"location": {
			"latitude": 34.574060434967,
			"longitude": 116.9978104198
		},
		"published": true,
		"type": "AERODROME",
		"description": ""
	},
	{
		"province": "浙江省",
		"city": "杭州市",
		"name": "浙江二院高架直升机场",
		"address": "浙江省杭州市江干区环城东路23号-10-12",
		"location": {
			"latitude": 30.259128587903,
			"longitude": 120.19426591547
		},
		"published": true,
		"type": "AERODROME",
		"description": ""
	},
	{
		"province": "浙江省",
		"city": "舟山市",
		"name": "舟山枸杞、嵊泗直升机场",
		"address": "浙江省舟山市普陀区朱乌线",
		"location": {
			"latitude": 29.941837228465,
			"longitude": 122.37883511317
		},
		"published": true,
		"type": "AERODROME",
		"description": ""
	},
	{
		"province": "山东省",
		"city": "滨州市",
		"name": "滨州大高通用机场",
		"address": "山东省滨州市沾化县",
		"location": {
			"latitude": 37.619420056661,
			"longitude": 117.90865660766
		},
		"published": true,
		"type": "AERODROME",
		"description": ""
	},
	{
		"province": "山东省",
		"city": "青岛市",
		"name": "青岛直升机航空有限公司",
		"address": "山东省青岛市崂山区松岭路58号",
		"location": {
			"latitude": 36.111208957656,
			"longitude": 120.48650661634
		},
		"published": true,
		"type": "AERODROME",
		"description": ""
	},
	{
		"province": "山东省",
		"city": "青岛市",
		"name": "青岛新机场",
		"address": "山东省青岛市胶州市",
		"location": {
			"latitude": 36.368416611811,
			"longitude": 120.1329001713
		},
		"published": true,
		"type": "AERODROME",
		"description": ""
	},
	{
		"province": "山东省",
		"city": "莱芜市",
		"name": "山东雪野通航机场",
		"address": "山东省莱芜市莱城区S242",
		"location": {
			"latitude": 36.414059404196,
			"longitude": 117.57705763756
		},
		"published": true,
		"type": "AERODROME",
		"description": ""
	},
	{
		"province": "山东省",
		"city": "济宁市",
		"name": "济宁通用机场",
		"address": "山东省济宁市兖州市S104",
		"location": {
			"latitude": 35.469272642476,
			"longitude": 116.78646115877
		},
		"published": true,
		"type": "AERODROME",
		"description": ""
	},
	{
		"province": "安徽省",
		"city": "合肥市",
		"name": "合肥骆岗机场",
		"address": "安徽省合肥市包河区大连路",
		"location": {
			"latitude": 31.789434516047,
			"longitude": 117.32578488009
		},
		"published": true,
		"type": "AERODROME",
		"description": ""
	},
	{
		"province": "安徽省",
		"city": "安庆市",
		"name": "安庆天柱山机场",
		"address": "安徽省安庆市宜秀区机场路",
		"location": {
			"latitude": 30.592242613806,
			"longitude": 117.07044403239
		},
		"published": true,
		"type": "AERODROME",
		"description": ""
	},
	{
		"province": "广西壮族自治区",
		"city": "桂林市",
		"name": "展卓通航机场",
		"address": "广西壮族自治区桂林市兴安县",
		"location": {
			"latitude": 25.620037559444,
			"longitude": 110.50839319498
		},
		"published": true,
		"type": "AERODROME",
		"description": ""
	},
	{
		"province": "海南省",
		"city": "海口市",
		"name": "海南安定甲子镇机场",
		"address": "海南省海口市琼山区",
		"location": {
			"latitude": 19.686252967619,
			"longitude": 110.39590905982
		},
		"published": true,
		"type": "AERODROME",
		"description": ""
	},
	{
		"province": "山西省",
		"city": "大同市",
		"name": "大同东王庄机场",
		"address": "山西省大同市大同县",
		"location": {
			"latitude": 40.054716689934,
			"longitude": 113.41892074034
		},
		"published": true,
		"type": "AERODROME",
		"description": ""
	},
	{
		"province": "江西省",
		"city": "吉安市",
		"name": "桐坪通航机场",
		"address": "江西省吉安市吉安县",
		"location": {
			"latitude": 27.256486095998,
			"longitude": 114.92433395505
		},
		"published": true,
		"type": "AERODROME",
		"description": ""
	},
	{
		"province": "湖北省",
		"city": "仙桃市",
		"name": "仙桃机场",
		"address": "湖北省仙桃市",
		"location": {
			"latitude": 30.408707733713,
			"longitude": 113.60801666935
		},
		"published": true,
		"type": "AERODROME",
		"description": ""
	},
	{
		"province": "福建省",
		"city": "福州市",
		"name": "福州竹岐直升机通航机场",
		"address": "福建省福州市闽侯县G316(福兰线)",
		"location": {
			"latitude": 26.126700247827,
			"longitude": 119.12538566331
		},
		"published": true,
		"type": "AERODROME",
		"description": ""
	},
	{
		"province": "福建省",
		"city": "舟山市",
		"name": "武夷山角亭直升机场",
		"address": "浙江省舟山市普陀区朱乌线",
		"location": {
			"latitude": 29.941830735155,
			"longitude": 122.37883592964
		},
		"published": true,
		"type": "AERODROME",
		"description": ""
	},
	{
		"province": "宁夏回族自治区",
		"city": "吴忠市",
		"name": "盐池通用机场",
		"address": "宁夏回族自治区吴忠市盐池县",
		"location": {
			"latitude": 37.866619277523,
			"longitude": 107.44267067734
		},
		"published": true,
		"type": "AERODROME",
		"description": ""
	},
	{
		"province": "北京市",
		"city": "北京市",
		"name": "奥体中心",
		"address": "北京市朝阳区安定路辅路",
		"location": {
			"latitude": 39.990398614147,
			"longitude": 116.41472576863
		},
		"published": true,
		"type": "HELICOPTER",
		"description": ""
	},
	{
		"province": "北京市",
		"city": "北京市",
		"name": "国家体育场",
		"address": "北京市朝阳区慧忠北路",
		"location": {
			"latitude": 40.004027471692,
			"longitude": 116.40888513761
		},
		"published": true,
		"type": "HELICOPTER",
		"description": ""
	},
	{
		"province": "北京市",
		"city": "北京市",
		"name": "国家体育中心网球场-钻石网球中心",
		"address": "北京市朝阳区林萃路",
		"location": {
			"latitude": 40.027202862156,
			"longitude": 116.38159805343
		},
		"published": true,
		"type": "HELICOPTER",
		"description": ""
	},
	{
		"province": "北京市",
		"city": "北京市",
		"name": "石景山体育场",
		"address": "北京市石景山区体育场北路",
		"location": {
			"latitude": 39.911975424359,
			"longitude": 116.21435846212
		},
		"published": true,
		"type": "HELICOPTER",
		"description": ""
	},
	{
		"province": "北京市",
		"city": "北京市",
		"name": "石景山自行车赛场",
		"address": "北京市石景山区五景桥东街",
		"location": {
			"latitude": 39.921923915177,
			"longitude": 116.21908417479
		},
		"published": true,
		"type": "HELICOPTER",
		"description": ""
	},
	{
		"province": "北京市",
		"city": "北京市",
		"name": "蓝调庄园",
		"address": "北京市朝阳区",
		"location": {
			"latitude": 39.971501962948,
			"longitude": 116.61703020676
		},
		"published": true,
		"type": "HELICOPTER",
		"description": ""
	},
	{
		"province": "北京市",
		"city": "北京市",
		"name": "金怀湾采摘园",
		"address": "北京市怀柔区",
		"location": {
			"latitude": 40.334618871473,
			"longitude": 116.57414041704
		},
		"published": true,
		"type": "HELICOPTER",
		"description": ""
	},
	{
		"province": "北京市",
		"city": "北京市",
		"name": "怀柔人济高尔夫",
		"address": "北京市怀柔区",
		"location": {
			"latitude": 40.350521934193,
			"longitude": 116.56969598142
		},
		"published": true,
		"type": "HELICOPTER",
		"description": ""
	},
	{
		"province": "北京市",
		"city": "北京市",
		"name": "怀柔镇兴隆庄村",
		"address": "北京市怀柔区",
		"location": {
			"latitude": 40.342054306506,
			"longitude": 116.58110483234
		},
		"published": true,
		"type": "HELICOPTER",
		"description": ""
	},
	{
		"province": "北京市",
		"city": "北京市",
		"name": "怀柔镇北宅村",
		"address": "北京市怀柔区",
		"location": {
			"latitude": 40.341573026811,
			"longitude": 116.55799389567
		},
		"published": true,
		"type": "HELICOPTER",
		"description": ""
	},
	{
		"province": "北京市",
		"city": "北京市",
		"name": "石京龙滑雪场地",
		"address": "北京市延庆县X009(旧小路)",
		"location": {
			"latitude": 40.529596760713,
			"longitude": 115.98254545467
		},
		"published": true,
		"type": "HELICOPTER",
		"description": ""
	},
	{
		"province": "北京市",
		"city": "北京市",
		"name": "延庆辉煌高尔夫俱乐部",
		"address": "北京市延庆县",
		"location": {
			"latitude": 40.482134332426,
			"longitude": 115.8271086404
		},
		"published": true,
		"type": "HELICOPTER",
		"description": ""
	},
	{
		"province": "北京市",
		"city": "北京市",
		"name": "健一公馆",
		"address": "北京市朝阳区东四环中路辅路",
		"location": {
			"latitude": 39.932520640728,
			"longitude": 116.49506885337
		},
		"published": true,
		"type": "HELICOPTER",
		"description": ""
	},
	{
		"province": "北京市",
		"city": "北京市",
		"name": "亦庄同仁医院",
		"address": "北京市大兴区西环南路2号",
		"location": {
			"latitude": 39.780033090981,
			"longitude": 116.52538981017
		},
		"published": true,
		"type": "HELICOPTER",
		"description": ""
	},
	{
		"province": "北京市",
		"city": "北京市",
		"name": "999急救中心",
		"address": "北京市朝阳区清河东路",
		"location": {
			"latitude": 40.031815701288,
			"longitude": 116.36055614333
		},
		"published": true,
		"type": "TREATMENT",
		"description": ""
	},
	{
		"province": "北京市",
		"city": "北京市",
		"name": "原子能院科技馆",
		"address": "北京市房山区东平街",
		"location": {
			"latitude": 39.740291200489,
			"longitude": 116.06689553729
		},
		"published": true,
		"type": "HELICOPTER",
		"description": ""
	},
	{
		"province": "北京市",
		"city": "北京市",
		"name": "北京友谊医院",
		"address": "北京市西城区福长街14号",
		"location": {
			"latitude": 39.891634978718,
			"longitude": 116.40180088166
		},
		"published": true,
		"type": "TREATMENT",
		"description": ""
	},
	{
		"province": "北京市",
		"city": "北京市",
		"name": "北京天坛公园",
		"address": "北京市东城区天坛路",
		"location": {
			"latitude": 39.893215784089,
			"longitude": 116.42155701667
		},
		"published": true,
		"type": "TREATMENT",
		"description": ""
	},
	{
		"province": "北京市",
		"city": "北京市",
		"name": "北京天坛公园",
		"address": "北京市东城区天坛路甲1号",
		"location": {
			"latitude": 39.894357731939,
			"longitude": 116.41904791817
		},
		"published": true,
		"type": "TREATMENT",
		"description": ""
	},
	{
		"province": "北京市",
		"city": "北京市",
		"name": "北京天坛公园",
		"address": "北京市东城区天坛路甲1号",
		"location": {
			"latitude": 39.894078128843,
			"longitude": 116.41904841477
		},
		"published": true,
		"type": "TREATMENT",
		"description": ""
	},
	{
		"province": "北京市",
		"city": "北京市",
		"name": "北京积水潭医院",
		"address": "北京市昌平区回南北路",
		"location": {
			"latitude": 40.092630585502,
			"longitude": 116.33050001349
		},
		"published": true,
		"type": "TREATMENT",
		"description": ""
	},
	{
		"province": "北京市",
		"city": "北京市",
		"name": "北京市香山公园",
		"address": "北京市海淀区香山路",
		"location": {
			"latitude": 40.001110897364,
			"longitude": 116.21912247942
		},
		"published": true,
		"type": "HELICOPTER",
		"description": ""
	},
	{
		"province": "北京市",
		"city": "北京市",
		"name": "北京市香山公园",
		"address": "北京市海淀区香山买卖街乙52号",
		"location": {
			"latitude": 39.996882218605,
			"longitude": 116.20353355706
		},
		"published": true,
		"type": "HELICOPTER",
		"description": ""
	},
	{
		"province": "北京市",
		"city": "北京市",
		"name": "房山燕山消防队",
		"address": "北京市房山区凤凰亭路17号",
		"location": {
			"latitude": 39.740027741064,
			"longitude": 115.96223484566
		},
		"published": true,
		"type": "HELICOPTER",
		"description": ""
	},
	{
		"province": "北京市",
		"city": "北京市",
		"name": "门头沟区清水镇灵山",
		"address": "北京市门头沟区X013(灵山路)",
		"location": {
			"latitude": 40.055500180552,
			"longitude": 115.51652296082
		},
		"published": true,
		"type": "HELICOPTER",
		"description": ""
	},
	{
		"province": "北京市",
		"city": "北京市",
		"name": "昌平旧县消防队",
		"address": "北京市昌平区",
		"location": {
			"latitude": 40.248729695712,
			"longitude": 116.17988606291
		},
		"published": true,
		"type": "HELICOPTER",
		"description": ""
	},
	{
		"province": "北京市",
		"city": "北京市",
		"name": "昌平区十三陵沟崖",
		"address": "北京市昌平区",
		"location": {
			"latitude": 40.299852105244,
			"longitude": 116.17874121098
		},
		"published": true,
		"type": "HELICOPTER",
		"description": ""
	},
	{
		"province": "北京市",
		"city": "北京市",
		"name": "怀柔连石沟门村西",
		"address": "北京市怀柔区G111",
		"location": {
			"latitude": 40.759006452485,
			"longitude": 116.65987154198
		},
		"published": true,
		"type": "HELICOPTER",
		"description": ""
	},
	{
		"province": "北京市",
		"city": "北京市",
		"name": "密云河南寨迎春桥",
		"address": "北京市密云县X202(左堤路)",
		"location": {
			"latitude": 40.352179922339,
			"longitude": 116.83685540831
		},
		"published": true,
		"type": "HELICOPTER",
		"description": ""
	},
	{
		"province": "北京市",
		"city": "北京市",
		"name": "平谷大榕洞机场",
		"address": "北京市平谷区黑黄路",
		"location": {
			"latitude": 40.219564102042,
			"longitude": 117.25031133144
		},
		"published": true,
		"type": "HELICOPTER",
		"description": ""
	},
	{
		"province": "北京市",
		"city": "保定市",
		"name": "京煤集团斋堂山大贝梁",
		"address": "河北省保定市徐水县",
		"location": {
			"latitude": 39.089907493605,
			"longitude": 115.74635391728
		},
		"published": true,
		"type": "HELICOPTER",
		"description": ""
	},
	{
		"province": "北京市",
		"city": "北京市",
		"name": "门头沟新桥中学",
		"address": "北京市门头沟区",
		"location": {
			"latitude": 39.964290003922,
			"longitude": 116.10100764713
		},
		"published": true,
		"type": "HELICOPTER",
		"description": ""
	},
	{
		"province": "北京市",
		"city": "北京市",
		"name": "北京同仁医院分院",
		"address": "北京市通州区滨河南路",
		"location": {
			"latitude": 39.871805016733,
			"longitude": 116.72898956058
		},
		"published": true,
		"type": "HELICOPTER",
		"description": ""
	},
	{
		"province": "北京市",
		"city": "北京市",
		"name": "北京市红十字会紧急救援中心",
		"address": "北京市朝阳区清河东路",
		"location": {
			"latitude": 40.032094765169,
			"longitude": 116.36055750284
		},
		"published": true,
		"type": "HELICOPTER",
		"description": ""
	},
	{
		"province": "北京市",
		"city": "北京市",
		"name": "北京老年医院",
		"address": "北京市海淀区温泉路118号",
		"location": {
			"latitude": 40.057554984874,
			"longitude": 116.17281143641
		},
		"published": true,
		"type": "HELICOPTER",
		"description": ""
	},
	{
		"province": "北京市",
		"city": "北京市",
		"name": "地坛医院",
		"address": "北京市朝阳区来广营东路",
		"location": {
			"latitude": 40.030832108596,
			"longitude": 116.53232990887
		},
		"published": true,
		"type": "HELICOPTER",
		"description": ""
	},
	{
		"province": "北京市",
		"city": "北京市",
		"name": "北大国际医院",
		"address": "北京市昌平区生命园西环路",
		"location": {
			"latitude": 40.107201560003,
			"longitude": 116.27083146021
		},
		"published": true,
		"type": "HELICOPTER",
		"description": ""
	},
	{
		"province": "北京市",
		"city": "北京市",
		"name": "积水潭医院",
		"address": "北京市昌平区回南北路",
		"location": {
			"latitude": 40.092629991012,
			"longitude": 116.33050382857
		},
		"published": true,
		"type": "HELICOPTER",
		"description": ""
	},
	{
		"province": "北京市",
		"city": "北京市",
		"name": "陶然亭公园",
		"address": "北京市东城区马家堡路1号1",
		"location": {
			"latitude": 39.876067908456,
			"longitude": 116.39467886315
		},
		"published": true,
		"type": "TREATMENT",
		"description": ""
	},
	{
		"province": "北京市",
		"city": "北京市",
		"name": "海淀公园",
		"address": "北京市海淀区万泉河桥",
		"location": {
			"latitude": 39.995853883179,
			"longitude": 116.30636755744
		},
		"published": true,
		"type": "HELICOPTER",
		"description": ""
	},
	{
		"province": "北京市",
		"city": "北京市",
		"name": "东升文体公园",
		"address": "北京市海淀区",
		"location": {
			"latitude": 40.049775979504,
			"longitude": 116.38393480378
		},
		"published": true,
		"type": "HELICOPTER",
		"description": ""
	},
	{
		"province": "北京市",
		"city": "北京市",
		"name": "奥林匹克公园",
		"address": "北京市朝阳区",
		"location": {
			"latitude": 40.018844497411,
			"longitude": 116.39903596063
		},
		"published": true,
		"type": "HELICOPTER",
		"description": ""
	},
	{
		"province": "北京市",
		"city": "北京市",
		"name": "太阳宫公园",
		"address": "北京市朝阳区北四环东路辅路",
		"location": {
			"latitude": 39.981733389744,
			"longitude": 116.46725300603
		},
		"published": true,
		"type": "HELICOPTER",
		"description": ""
	},
	{
		"province": "北京市",
		"city": "北京市",
		"name": "朝阳公园2处",
		"address": "北京市朝阳区姚家园北路",
		"location": {
			"latitude": 39.952897190141,
			"longitude": 116.50140489565
		},
		"published": true,
		"type": "HELICOPTER",
		"description": ""
	},
	{
		"province": "北京市",
		"city": "北京市",
		"name": "朝阳公园2处",
		"address": "北京市朝阳区东四环北路辅路",
		"location": {
			"latitude": 39.943355697786,
			"longitude": 116.4950696773
		},
		"published": true,
		"type": "HELICOPTER",
		"description": ""
	},
	{
		"province": "北京市",
		"city": "北京市",
		"name": "方庄体育公园",
		"address": "北京市丰台区芳城路",
		"location": {
			"latitude": 39.874080321232,
			"longitude": 116.43607798436
		},
		"published": true,
		"type": "HELICOPTER",
		"description": ""
	},
	{
		"province": "北京市",
		"city": "廊坊市",
		"name": "园博园3号门外停车场",
		"address": "河北省廊坊市大厂回族自治县",
		"location": {
			"latitude": 39.874327066264,
			"longitude": 116.98895817359
		},
		"published": true,
		"type": "HELICOPTER",
		"description": ""
	},
	{
		"province": "北京市",
		"city": "北京市",
		"name": "平谷桃花海停车场",
		"address": "北京市平谷区",
		"location": {
			"latitude": 40.257926301302,
			"longitude": 117.03454070337
		},
		"published": true,
		"type": "HELICOPTER",
		"description": ""
	},
	{
		"province": "北京市",
		"city": "北京市",
		"name": "丫髻山太极广场",
		"address": "北京市平谷区丫髻山专用路",
		"location": {
			"latitude": 40.270466829809,
			"longitude": 116.98898247805
		},
		"published": true,
		"type": "HELICOPTER",
		"description": ""
	},
	{
		"province": "北京市",
		"city": "北京市",
		"name": "龙庆峡旅游景区",
		"address": "北京市延庆县X009(旧小路)",
		"location": {
			"latitude": 40.541369590423,
			"longitude": 116.02296588282
		},
		"published": true,
		"type": "HELICOPTER",
		"description": ""
	},
	{
		"province": "北京市",
		"city": "北京市",
		"name": "北京植物园",
		"address": "北京市海淀区香山路",
		"location": {
			"latitude": 40.001104643633,
			"longitude": 116.21912465649
		},
		"published": true,
		"type": "HELICOPTER",
		"description": ""
	},
	{
		"province": "北京市",
		"city": "北京市",
		"name": "香山公园",
		"address": "北京市海淀区香山买卖街乙52号",
		"location": {
			"latitude": 39.996888508523,
			"longitude": 116.20353055529
		},
		"published": true,
		"type": "HELICOPTER",
		"description": ""
	},
	{
		"province": "北京市",
		"city": "北京市",
		"name": "延庆千家店朝阳寺",
		"address": "北京市延庆县东囤路",
		"location": {
			"latitude": 40.698042635154,
			"longitude": 116.34092956132
		},
		"published": true,
		"type": "HELICOPTER",
		"description": ""
	},
	{
		"province": "北京市",
		"city": "北京市",
		"name": "国家体育场（鸟巢）",
		"address": "北京市朝阳区慧忠北路",
		"location": {
			"latitude": 40.004013113131,
			"longitude": 116.40887808452
		},
		"published": true,
		"type": "HELICOPTER",
		"description": ""
	},
	{
		"province": "北京市",
		"city": "北京市",
		"name": "国家体育中心网球场",
		"address": "北京市朝阳区林萃路",
		"location": {
			"latitude": 40.02720096393,
			"longitude": 116.38159805531
		},
		"published": true,
		"type": "HELICOPTER",
		"description": ""
	},
	{
		"province": "北京市",
		"city": "北京市",
		"name": "奥体中心",
		"address": "北京市朝阳区安定路辅路",
		"location": {
			"latitude": 39.990398090378,
			"longitude": 116.41472332059
		},
		"published": true,
		"type": "HELICOPTER",
		"description": ""
	},
	{
		"province": "北京市",
		"city": "北京市",
		"name": "石景山体育场",
		"address": "北京市石景山区体育场北路",
		"location": {
			"latitude": 39.911974000405,
			"longitude": 116.2143647259
		},
		"published": true,
		"type": "HELICOPTER",
		"description": ""
	},
	{
		"province": "北京市",
		"city": "北京市",
		"name": "工人体育场北门停车场",
		"address": "北京市朝阳区工人体育场北路九号",
		"location": {
			"latitude": 39.939530537864,
			"longitude": 116.45972973635
		},
		"published": true,
		"type": "TREATMENT",
		"description": ""
	},
	{
		"province": "北京市",
		"city": "北京市",
		"name": "朝阳体育场",
		"address": "北京市朝阳区",
		"location": {
			"latitude": 39.952194411204,
			"longitude": 116.53480935019
		},
		"published": true,
		"type": "HELICOPTER",
		"description": ""
	},
	{
		"province": "北京市",
		"city": "北京市",
		"name": "丰台体育中心",
		"address": "北京市丰台区",
		"location": {
			"latitude": 39.860239497202,
			"longitude": 116.28408973955
		},
		"published": true,
		"type": "HELICOPTER",
		"description": ""
	},
	{
		"province": "北京市",
		"city": "廊坊市",
		"name": "光彩体育馆",
		"address": "河北省廊坊市固安县",
		"location": {
			"latitude": 39.358953846831,
			"longitude": 116.41813255648
		},
		"published": true,
		"type": "HELICOPTER",
		"description": ""
	},
	{
		"province": "北京市",
		"city": "北京市",
		"name": "玉泉营高尔夫训练场",
		"address": "北京市丰台区镇国寺北街",
		"location": {
			"latitude": 39.852038658049,
			"longitude": 116.35610884201
		},
		"published": true,
		"type": "HELICOPTER",
		"description": ""
	},
	{
		"province": "北京市",
		"city": "北京市",
		"name": "老山自行车场",
		"address": "北京市石景山区五景桥东街",
		"location": {
			"latitude": 39.921924522182,
			"longitude": 116.21907492917
		},
		"published": true,
		"type": "HELICOPTER",
		"description": ""
	},
	{
		"province": "北京市",
		"city": "北京市",
		"name": "通州区体委操场",
		"address": "北京市通州区西海子西路43号",
		"location": {
			"latitude": 39.918189696247,
			"longitude": 116.66752739952
		},
		"published": true,
		"type": "HELICOPTER",
		"description": ""
	},
	{
		"province": "北京市",
		"city": "北京市",
		"name": "怀柔区体育中心操场",
		"address": "北京市昌平区",
		"location": {
			"latitude": 40.31323817133,
			"longitude": 116.36059494446
		},
		"published": true,
		"type": "HELICOPTER",
		"description": ""
	},
	{
		"province": "北京市",
		"city": "张家口市",
		"name": "延庆体育场",
		"address": "河北省张家口市怀来县",
		"location": {
			"latitude": 40.462959302251,
			"longitude": 115.59624574237
		},
		"published": true,
		"type": "HELICOPTER",
		"description": ""
	},
	{
		"province": "北京市",
		"city": "张家口市",
		"name": "北京第二十中学附属实验学校",
		"address": "河北省张家口市涿鹿县",
		"location": {
			"latitude": 40.040607545238,
			"longitude": 115.35940489056
		},
		"published": true,
		"type": "HELICOPTER",
		"description": ""
	},
	{
		"province": "北京市",
		"city": "廊坊市",
		"name": "北京第二十中学",
		"address": "河北省廊坊市固安县育才北路",
		"location": {
			"latitude": 39.457229812509,
			"longitude": 116.30797143787
		},
		"published": true,
		"type": "HELICOPTER",
		"description": ""
	},
	{
		"province": "北京市",
		"city": "北京市",
		"name": "北京服装学院",
		"address": "北京市朝阳区樱花路甲2号",
		"location": {
			"latitude": 39.98098471744,
			"longitude": 116.43804146126
		},
		"published": true,
		"type": "HELICOPTER",
		"description": ""
	},
	{
		"province": "北京市",
		"city": "北京市",
		"name": "海淀东北旺小学",
		"address": "北京市海淀区圆明园西路辅路",
		"location": {
			"latitude": 40.026231884516,
			"longitude": 116.28880153451
		},
		"published": true,
		"type": "HELICOPTER",
		"description": ""
	},
	{
		"province": "北京市",
		"city": "北京市",
		"name": "北京电子科技学院",
		"address": "北京市丰台区看丹南路",
		"location": {
			"latitude": 39.843552190423,
			"longitude": 116.28616397695
		},
		"published": true,
		"type": "HELICOPTER",
		"description": ""
	},
	{
		"province": "北京市",
		"city": "北京市",
		"name": "北京体育职业学院",
		"address": "北京市丰台区光彩北路",
		"location": {
			"latitude": 39.859087644425,
			"longitude": 116.41821306615
		},
		"published": true,
		"type": "HELICOPTER",
		"description": ""
	},
	{
		"province": "北京市",
		"city": "北京市",
		"name": "丰台区实验小学",
		"address": "北京市丰台区宋庄路51号",
		"location": {
			"latitude": 39.854382088162,
			"longitude": 116.4343898195
		},
		"published": true,
		"type": "HELICOPTER",
		"description": ""
	},
	{
		"province": "北京市",
		"city": "北京市",
		"name": "门头沟北京矿务技校",
		"address": "北京市门头沟区X011",
		"location": {
			"latitude": 39.992776693237,
			"longitude": 116.08080708159
		},
		"published": true,
		"type": "HELICOPTER",
		"description": ""
	},
	{
		"province": "北京市",
		"city": "北京市",
		"name": "通州潞河中学",
		"address": "北京市通州区新华南路135号",
		"location": {
			"latitude": 39.905423323629,
			"longitude": 116.66309324629
		},
		"published": true,
		"type": "HELICOPTER",
		"description": ""
	},
	{
		"province": "北京市",
		"city": "北京市",
		"name": "北师大良乡附属中学",
		"address": "北京市朝阳区清河东路",
		"location": {
			"latitude": 40.032098370011,
			"longitude": 116.36056398261
		},
		"published": true,
		"type": "HELICOPTER",
		"description": ""
	},
	{
		"province": "北京市",
		"city": "北京市",
		"name": "延庆千家店小学",
		"address": "北京市海淀区乐育路",
		"location": {
			"latitude": 39.96725508781,
			"longitude": 116.37383982376
		},
		"published": true,
		"type": "HELICOPTER",
		"description": ""
	},
	{
		"province": "北京市",
		"city": "北京市",
		"name": "怀柔区桥梓镇北宅村备勤点",
		"address": "北京市怀柔区",
		"location": {
			"latitude": 40.341576011452,
			"longitude": 116.5579938977
		},
		"published": true,
		"type": "HELICOPTER",
		"description": ""
	},
	{
		"province": "北京市",
		"city": "北京市",
		"name": "农展馆",
		"address": "北京市朝阳区柏树街10号院",
		"location": {
			"latitude": 39.947551054802,
			"longitude": 116.46999152367
		},
		"published": true,
		"type": "HELICOPTER",
		"description": ""
	},
	{
		"province": "北京市",
		"city": "北京市",
		"name": "八达岭国际会议中心",
		"address": "北京市延庆县庆园街",
		"location": {
			"latitude": 40.478561517836,
			"longitude": 115.98803678613
		},
		"published": true,
		"type": "HELICOPTER",
		"description": ""
	},
	{
		"province": "北京市",
		"city": "北京市",
		"name": "房山南窖体育飞行基地",
		"address": "北京市房山区X030(红新路)",
		"location": {
			"latitude": 39.780342959907,
			"longitude": 115.84205727517
		},
		"published": true,
		"type": "HELICOPTER",
		"description": ""
	},
	{
		"province": "北京市",
		"city": "北京市",
		"name": "海淀北安河起降点",
		"address": "北京市海淀区阳台山路",
		"location": {
			"latitude": 40.077131039688,
			"longitude": 116.11932089039
		},
		"published": true,
		"type": "HELICOPTER",
		"description": ""
	},
	{
		"province": "北京市",
		"city": "北京市",
		"name": "昌平定陵机场",
		"address": "北京市昌平区昭陵路8号",
		"location": {
			"latitude": 40.294769457241,
			"longitude": 116.2463292434
		},
		"published": true,
		"type": "HELICOPTER",
		"description": ""
	},
	{
		"province": "北京市",
		"city": "北京市",
		"name": "延庆八达岭机场",
		"address": "北京市延庆县",
		"location": {
			"latitude": 40.386134097854,
			"longitude": 115.94913727247
		},
		"published": true,
		"type": "HELICOPTER",
		"description": ""
	},
	{
		"province": "北京市",
		"city": "北京市",
		"name": "密云机场",
		"address": "北京市昌平区",
		"location": {
			"latitude": 40.195607075371,
			"longitude": 116.34083982856
		},
		"published": true,
		"type": "HELICOPTER",
		"description": ""
	},
	{
		"province": "北京市",
		"city": "北京市",
		"name": "白庙检查站",
		"address": "北京市通州区G102(通燕高速)",
		"location": {
			"latitude": 39.943661420285,
			"longitude": 116.7733040472
		},
		"published": true,
		"type": "HELICOPTER",
		"description": ""
	},
	{
		"province": "北京市",
		"city": "北京市",
		"name": "应寺检查站",
		"address": "北京市通州区S222(觅凤路)",
		"location": {
			"latitude": 39.64521302375,
			"longitude": 116.73449732732
		},
		"published": true,
		"type": "HELICOPTER",
		"description": ""
	},
	{
		"province": "北京市",
		"city": "北京市",
		"name": "张山营检查站",
		"address": "北京市延庆县京银路",
		"location": {
			"latitude": 40.477041848371,
			"longitude": 115.84633897017
		},
		"published": true,
		"type": "HELICOPTER",
		"description": ""
	},
	{
		"province": "北京市",
		"city": "北京市",
		"name": "消防保障基地",
		"address": "北京市朝阳区",
		"location": {
			"latitude": 40.066839678084,
			"longitude": 116.481449263
		},
		"published": true,
		"type": "HELICOPTER",
		"description": ""
	},
	{
		"province": "北京市",
		"city": "北京市",
		"name": "国家体育场",
		"address": "北京市朝阳区林萃路",
		"location": {
			"latitude": 40.027205711203,
			"longitude": 116.38159050103
		},
		"published": true,
		"type": "HELICOPTER",
		"description": ""
	},
	{
		"province": "北京市",
		"city": "北京市",
		"name": "北京市红十字会养老中心",
		"address": "北京市怀柔区",
		"location": {
			"latitude": 40.33462124425,
			"longitude": 116.57414668235
		},
		"published": true,
		"type": "HELICOPTER",
		"description": ""
	},
	{
		"province": "北京市",
		"city": "北京市",
		"name": "怀柔区人济山庄",
		"address": "北京市怀柔区",
		"location": {
			"latitude": 40.350524031509,
			"longitude": 116.56970116136
		},
		"published": true,
		"type": "HELICOPTER",
		"description": ""
	},
	{
		"province": "北京市",
		"city": "北京市",
		"name": "健一公馆",
		"address": "北京市朝阳区东四环中路辅路",
		"location": {
			"latitude": 39.932526460743,
			"longitude": 116.49507559163
		},
		"published": true,
		"type": "HELICOPTER",
		"description": ""
	},
	{
		"province": "北京市",
		"city": "北京市",
		"name": "原子能量科学馆",
		"address": "北京市房山区东平街",
		"location": {
			"latitude": 39.740298719785,
			"longitude": 116.06690045239
		},
		"published": true,
		"type": "HELICOPTER",
		"description": ""
	},
	{
		"province": "北京市",
		"city": "北京市",
		"name": "怀柔区兴隆庄村",
		"address": "北京市怀柔区",
		"location": {
			"latitude": 40.342058102264,
			"longitude": 116.58110537832
		},
		"published": true,
		"type": "HELICOPTER",
		"description": ""
	},
	{
		"province": "北京市",
		"city": "北京市",
		"name": "北京307医院",
		"address": "北京市丰台区东大街8号",
		"location": {
			"latitude": 39.868047591701,
			"longitude": 116.30193101595
		},
		"published": true,
		"type": "HELICOPTER",
		"description": ""
	},
	{
		"province": "北京市",
		"city": "北京市",
		"name": "北京海航合作医院",
		"address": "北京市朝阳区东四环南路53",
		"location": {
			"latitude": 39.868596134886,
			"longitude": 116.49207560673
		},
		"published": true,
		"type": "HELICOPTER",
		"description": ""
	},
	{
		"province": "北京市",
		"city": "北京市",
		"name": "北京市大兴绿地缤纷城内",
		"address": "北京市大兴区兴丰大街",
		"location": {
			"latitude": 39.76947380584,
			"longitude": 116.34136694018
		},
		"published": true,
		"type": "HELICOPTER",
		"description": ""
	},
	{
		"province": "北京市",
		"city": "北京市",
		"name": "怀柔怀北滑雪场",
		"address": "北京市怀柔区",
		"location": {
			"latitude": 40.452942894707,
			"longitude": 116.66488015861
		},
		"published": true,
		"type": "HELICOPTER",
		"description": ""
	},
	{
		"province": "北京市",
		"city": "北京市",
		"name": "龙湾房车露营地",
		"address": "北京市延庆县",
		"location": {
			"latitude": 40.514386063742,
			"longitude": 116.10912651316
		},
		"published": true,
		"type": "HELICOPTER",
		"description": ""
	},
	{
		"province": "北京市",
		"city": "北京市",
		"name": "滴水湖停车场",
		"address": "北京市延庆县S309",
		"location": {
			"latitude": 40.688047638193,
			"longitude": 116.46705732063
		},
		"published": true,
		"type": "HELICOPTER",
		"description": ""
	},
	{
		"province": "北京市",
		"city": "北京市",
		"name": "乌龙峡停车场",
		"address": "北京市延庆县X002",
		"location": {
			"latitude": 40.70390009956,
			"longitude": 116.46652465996
		},
		"published": true,
		"type": "HELICOPTER",
		"description": ""
	},
	{
		"province": "北京市",
		"city": "北京市",
		"name": "硅化木公园",
		"address": "北京市延庆县S309",
		"location": {
			"latitude": 40.704765892672,
			"longitude": 116.38777628197
		},
		"published": true,
		"type": "HELICOPTER",
		"description": ""
	},
	{
		"province": "北京市",
		"city": "北京市",
		"name": "十渡景区",
		"address": "北京市房山区",
		"location": {
			"latitude": 39.632602048242,
			"longitude": 115.61040345644
		},
		"published": true,
		"type": "HELICOPTER",
		"description": ""
	},
	{
		"province": "北京市",
		"city": "北京市",
		"name": "十渡景区山下乐园",
		"address": "北京市房山区X017(涞宝路)",
		"location": {
			"latitude": 39.639783231545,
			"longitude": 115.61347505973
		},
		"published": true,
		"type": "HELICOPTER",
		"description": ""
	},
	{
		"province": "北京市",
		"city": "北京市",
		"name": "首都西南集散中心",
		"address": "北京市房山区X024(云居寺路)",
		"location": {
			"latitude": 39.590977396842,
			"longitude": 115.88527330227
		},
		"published": true,
		"type": "HELICOPTER",
		"description": ""
	},
	{
		"province": "北京市",
		"city": "张家口市",
		"name": "古崖居停机点第一起降点",
		"address": "河北省张家口市怀来县",
		"location": {
			"latitude": 40.45880825551,
			"longitude": 115.76760514152
		},
		"published": true,
		"type": "HELICOPTER",
		"description": ""
	},
	{
		"province": "北京市",
		"city": "张家口市",
		"name": "古崖居停机点第二起降点",
		"address": "河北省张家口市怀来县",
		"location": {
			"latitude": 40.469942220705,
			"longitude": 115.76871573626
		},
		"published": true,
		"type": "HELICOPTER",
		"description": ""
	},
	{
		"province": "北京市",
		"city": "张家口市",
		"name": "闫家坪",
		"address": "河北省张家口市赤城县Y082",
		"location": {
			"latitude": 40.539770547703,
			"longitude": 115.75182351995
		},
		"published": true,
		"type": "HELICOPTER",
		"description": ""
	},
	{
		"province": "北京市",
		"city": "北京市",
		"name": "朝阳公园",
		"address": "北京市朝阳区",
		"location": {
			"latitude": 39.942149741226,
			"longitude": 116.4887399083
		},
		"published": true,
		"type": "HELICOPTER",
		"description": ""
	},
	{
		"province": "北京市",
		"city": "北京市",
		"name": "北京外国语第二大学",
		"address": "北京市朝阳区建国路",
		"location": {
			"latitude": 39.917414254142,
			"longitude": 116.56961380497
		},
		"published": true,
		"type": "HELICOPTER",
		"description": ""
	},
	{
		"province": "北京市",
		"city": "北京市",
		"name": "北京光彩体育馆篮球场",
		"address": "北京市丰台区光彩北路4号",
		"location": {
			"latitude": 39.859624533915,
			"longitude": 116.41904557365
		},
		"published": true,
		"type": "HELICOPTER",
		"description": ""
	},
	{
		"province": "北京市",
		"city": "北京市",
		"name": "北京海鱼广场",
		"address": "北京市朝阳区东四环南路53",
		"location": {
			"latitude": 39.868593065202,
			"longitude": 116.49179763123
		},
		"published": true,
		"type": "HELICOPTER",
		"description": ""
	},
	{
		"province": "北京市",
		"city": "北京市",
		"name": "北京欢乐谷",
		"address": "北京市朝阳区金蝉西路辅路",
		"location": {
			"latitude": 39.872402902185,
			"longitude": 116.50527176708
		},
		"published": true,
		"type": "HELICOPTER",
		"description": ""
	},
	{
		"province": "北京市",
		"city": "北京市",
		"name": "北京航空航天大学操场",
		"address": "北京市海淀区学院路37号院-401号楼",
		"location": {
			"latitude": 39.986456249373,
			"longitude": 116.35225544901
		},
		"published": true,
		"type": "HELICOPTER",
		"description": ""
	},
	{
		"province": "北京市",
		"city": "北京市",
		"name": "奥林匹克森林公园",
		"address": "北京市朝阳区林萃路45号",
		"location": {
			"latitude": 40.018320152568,
			"longitude": 116.38160503063
		},
		"published": true,
		"type": "HELICOPTER",
		"description": ""
	},
	{
		"province": "北京市",
		"city": "北京市",
		"name": "798艺术中心停车场",
		"address": "北京市朝阳区酒仙桥北路2",
		"location": {
			"latitude": 39.993435784683,
			"longitude": 116.49896453163
		},
		"published": true,
		"type": "HELICOPTER",
		"description": ""
	},
	{
		"province": "北京市",
		"city": "北京市",
		"name": "健一公馆",
		"address": "北京市朝阳区东四环中路辅路",
		"location": {
			"latitude": 39.932799604959,
			"longitude": 116.49479438098
		},
		"published": true,
		"type": "HELICOPTER",
		"description": ""
	},
	{
		"province": "北京市",
		"city": "北京市",
		"name": "酷车小镇",
		"address": "北京市朝阳区小武基路",
		"location": {
			"latitude": 39.878832119036,
			"longitude": 116.50775328969
		},
		"published": true,
		"type": "HELICOPTER",
		"description": ""
	},
	{
		"province": "北京市",
		"city": "北京市",
		"name": "辉腾国际",
		"address": "北京市延庆县",
		"location": {
			"latitude": 40.445318977045,
			"longitude": 115.84798244748
		},
		"published": true,
		"type": "HELICOPTER",
		"description": ""
	},
	{
		"province": "北京市",
		"city": "北京市",
		"name": "798艺术区",
		"address": "北京市朝阳区",
		"location": {
			"latitude": 39.98907158655,
			"longitude": 116.5050171314
		},
		"published": true,
		"type": "HELICOPTER",
		"description": ""
	},
	{
		"province": "北京市",
		"city": "北京市",
		"name": "国家会议中心",
		"address": "北京市朝阳区大屯路",
		"location": {
			"latitude": 40.007381490623,
			"longitude": 116.39212424851
		},
		"published": true,
		"type": "HELICOPTER",
		"description": ""
	},
	{
		"province": "北京市",
		"city": "北京市",
		"name": "电子城国际电子总部6号院内",
		"address": "北京市朝阳区酒仙桥路",
		"location": {
			"latitude": 39.988403809738,
			"longitude": 116.49731830744
		},
		"published": true,
		"type": "HELICOPTER",
		"description": ""
	},
	{
		"province": "北京市",
		"city": "北京市",
		"name": "宏昌骏体育运动公园",
		"address": "北京市朝阳区",
		"location": {
			"latitude": 40.036537162598,
			"longitude": 116.48408460503
		},
		"published": true,
		"type": "HELICOPTER",
		"description": ""
	},
	{
		"province": "北京市",
		"city": "北京市",
		"name": "长城脚下公社度假村",
		"address": "北京市延庆县",
		"location": {
			"latitude": 40.346554382561,
			"longitude": 116.05970237686
		},
		"published": true,
		"type": "HELICOPTER",
		"description": ""
	},
	{
		"province": "北京市",
		"city": "北京市",
		"name": "康屯镇屯军营村",
		"address": "北京市延庆县政通路",
		"location": {
			"latitude": 40.401084839005,
			"longitude": 115.88592356193
		},
		"published": true,
		"type": "HELICOPTER",
		"description": ""
	},
	{
		"province": "天津市",
		"city": "天津市",
		"name": "天津滨海新区天平镇",
		"address": "天津市滨海新区",
		"location": {
			"latitude": 38.570735663253,
			"longitude": 117.32456037249
		},
		"published": true,
		"type": "HELICOPTER",
		"description": ""
	},
	{
		"province": "天津市",
		"city": "天津市",
		"name": "天津空港中航工业园",
		"address": "天津市东丽区",
		"location": {
			"latitude": 39.113969610394,
			"longitude": 117.45001772703
		},
		"published": true,
		"type": "HELICOPTER",
		"description": ""
	},
	{
		"province": "天津市",
		"city": "天津市",
		"name": "泊湖林奇郡项目",
		"address": "天津市静海县G205(山深线)",
		"location": {
			"latitude": 38.889243645842,
			"longitude": 117.15510063226
		},
		"published": true,
		"type": "HELICOPTER",
		"description": ""
	},
	{
		"province": "天津市",
		"city": "天津市",
		"name": "武清区政府",
		"address": "天津市武清区雍阳西道118号",
		"location": {
			"latitude": 39.390343869712,
			"longitude": 117.05042240616
		},
		"published": true,
		"type": "HELICOPTER",
		"description": ""
	},
	{
		"province": "天津市",
		"city": "天津市",
		"name": "杨村五中",
		"address": "天津市武清区振华路",
		"location": {
			"latitude": 39.382825899556,
			"longitude": 117.05153618542
		},
		"published": true,
		"type": "HELICOPTER",
		"description": ""
	},
	{
		"province": "天津市",
		"city": "天津市",
		"name": "天津市第一中心医院",
		"address": "天津市南开区航天道",
		"location": {
			"latitude": 39.107369761826,
			"longitude": 117.15853811693
		},
		"published": true,
		"type": "HELICOPTER",
		"description": ""
	},
	{
		"province": "天津市",
		"city": "天津市",
		"name": "天津市职业医院",
		"address": "天津市南开区航天道44号",
		"location": {
			"latitude": 39.107928294448,
			"longitude": 117.15762166228
		},
		"published": true,
		"type": "HELICOPTER",
		"description": ""
	},
	{
		"province": "天津市",
		"city": "天津市",
		"name": "杨村五中",
		"address": "天津市武清区振华路",
		"location": {
			"latitude": 39.382823707732,
			"longitude": 117.05153781881
		},
		"published": true,
		"type": "HELICOPTER",
		"description": ""
	},
	{
		"province": "天津市",
		"city": "天津市",
		"name": "泊湖林奇郡项目",
		"address": "天津市东丽区",
		"location": {
			"latitude": 39.113965455405,
			"longitude": 117.4500128692
		},
		"published": true,
		"type": "HELICOPTER",
		"description": ""
	},
	{
		"province": "天津市",
		"city": "天津市",
		"name": "天津医院",
		"address": "天津市河西区新围堤道74号",
		"location": {
			"latitude": 39.100046145071,
			"longitude": 117.23488841566
		},
		"published": true,
		"type": "HELICOPTER",
		"description": ""
	},
	{
		"province": "天津市",
		"city": "天津市",
		"name": "蓟县黄崖关",
		"address": "天津市蓟县长城路",
		"location": {
			"latitude": 40.247127885104,
			"longitude": 117.45515426977
		},
		"published": true,
		"type": "HELICOPTER",
		"description": ""
	},
	{
		"province": "天津市",
		"city": "天津市",
		"name": "蓟县桑园",
		"address": "天津市蓟县S301(马平线)",
		"location": {
			"latitude": 40.170116445103,
			"longitude": 117.38503419476
		},
		"published": true,
		"type": "HELICOPTER",
		"description": ""
	},
	{
		"province": "河北省",
		"city": "张家口市",
		"name": "崇礼云顶滑雪场",
		"address": "河北省张家口市崇礼县",
		"location": {
			"latitude": 40.960600084464,
			"longitude": 115.43477808723
		},
		"published": true,
		"type": "HELICOPTER",
		"description": ""
	},
	{
		"province": "河北省",
		"city": "沧州市",
		"name": "肃宁县中心公园",
		"address": "河北省沧州市肃宁县状元大道",
		"location": {
			"latitude": 38.432121031232,
			"longitude": 115.82185167744
		},
		"published": true,
		"type": "HELICOPTER",
		"description": ""
	},
	{
		"province": "河北省",
		"city": "承德市",
		"name": "滨河公园",
		"address": "河北省承德市双桥区双桥立交桥",
		"location": {
			"latitude": 40.918134871628,
			"longitude": 117.96099337588
		},
		"published": true,
		"type": "HELICOPTER",
		"description": ""
	},
	{
		"province": "河北省",
		"city": "承德市",
		"name": "迎祥酒店停车场",
		"address": "河北省承德市宽城满族自治县滨河北街",
		"location": {
			"latitude": 40.624358282148,
			"longitude": 118.51740147848
		},
		"published": true,
		"type": "HELICOPTER",
		"description": ""
	},
	{
		"province": "河北省",
		"city": "承德市",
		"name": "丰宁汽配城",
		"address": "河北省承德市丰宁满族自治县",
		"location": {
			"latitude": 41.19436100516,
			"longitude": 116.66163359928
		},
		"published": true,
		"type": "HELICOPTER",
		"description": ""
	},
	{
		"province": "河北省",
		"city": "承德市",
		"name": "丰宁国家粮库",
		"address": "河北省承德市丰宁满族自治县G112(京环线)",
		"location": {
			"latitude": 41.244978152115,
			"longitude": 116.63874587088
		},
		"published": true,
		"type": "HELICOPTER",
		"description": ""
	},
	{
		"province": "河北省",
		"city": "承德市",
		"name": "兴隆粮库2",
		"address": "河北省承德市兴隆县G112(京环线)",
		"location": {
			"latitude": 40.437924788972,
			"longitude": 117.52775253986
		},
		"published": true,
		"type": "HELICOPTER",
		"description": ""
	},
	{
		"province": "河北省",
		"city": "廊坊市",
		"name": "香河天下第一城",
		"address": "河北省廊坊市香河县",
		"location": {
			"latitude": 39.723076171974,
			"longitude": 116.9204923176
		},
		"published": true,
		"type": "HELICOPTER",
		"description": ""
	},
	{
		"province": "河北省",
		"city": "石家庄市",
		"name": "石家庄市冀联医科院",
		"address": "河北省石家庄市桥西区中山西路170号",
		"location": {
			"latitude": 38.049121550692,
			"longitude": 114.4804858518
		},
		"published": true,
		"type": "HELICOPTER",
		"description": ""
	},
	{
		"province": "河北省",
		"city": "张家口市",
		"name": "张家口市第一人民医院",
		"address": "河北省张家口市桥西区西坝岗路中段",
		"location": {
			"latitude": 40.832886350375,
			"longitude": 114.87832971084
		},
		"published": true,
		"type": "HELICOPTER",
		"description": ""
	},
	{
		"province": "河北省",
		"city": "邢台市",
		"name": "邢台医学高等专科学校第二附属医院",
		"address": "河北省邢台市桥西区芳馨路",
		"location": {
			"latitude": 37.096519227531,
			"longitude": 114.46562267828
		},
		"published": true,
		"type": "HELICOPTER",
		"description": ""
	},
	{
		"province": "河北省",
		"city": "张家口市",
		"name": "怀来县医院",
		"address": "河北省张家口市怀来县燕京路",
		"location": {
			"latitude": 40.42144288147,
			"longitude": 115.54018934194
		},
		"published": true,
		"type": "HELICOPTER",
		"description": ""
	},
	{
		"province": "河北省",
		"city": "廊坊市",
		"name": "燕达医院",
		"address": "河北省廊坊市三河市思菩兰路",
		"location": {
			"latitude": 39.942732367567,
			"longitude": 116.80011098099
		},
		"published": true,
		"type": "HELICOPTER",
		"description": ""
	},
	{
		"province": "河北省",
		"city": "廊坊市",
		"name": "文安医院",
		"address": "河北省廊坊市文安县北马路",
		"location": {
			"latitude": 38.880488186815,
			"longitude": 116.47262901197
		},
		"published": true,
		"type": "HELICOPTER",
		"description": ""
	},
	{
		"province": "河北省",
		"city": "张家口市",
		"name": "崇礼云顶滑雪场",
		"address": "河北省张家口市崇礼县",
		"location": {
			"latitude": 40.960597117652,
			"longitude": 115.43477970951
		},
		"published": true,
		"type": "HELICOPTER",
		"description": ""
	},
	{
		"province": "河北省",
		"city": "衡水市",
		"name": "故城机场",
		"address": "河北省衡水市故城县",
		"location": {
			"latitude": 37.498421294871,
			"longitude": 116.12757975598
		},
		"published": true,
		"type": "HELICOPTER",
		"description": ""
	},
	{
		"province": "河北省",
		"city": "承德市",
		"name": "承德避暑山庄小学",
		"address": "河北省承德市双桥区广电路",
		"location": {
			"latitude": 40.982574047965,
			"longitude": 117.93859114921
		},
		"published": true,
		"type": "HELICOPTER",
		"description": ""
	},
	{
		"province": "河北省",
		"city": "邢台市",
		"name": "任县雅诺图塑料制品有限公司 ",
		"address": "河北省邢台市任县永康街",
		"location": {
			"latitude": 37.150060807508,
			"longitude": 114.67930414742
		},
		"published": true,
		"type": "HELICOPTER",
		"description": ""
	},
	{
		"province": "河北省",
		"city": "邢台市",
		"name": "奇星橡胶科技有限公司",
		"address": "河北省邢台市清河县嵩山南路",
		"location": {
			"latitude": 37.038942530914,
			"longitude": 115.68080628775
		},
		"published": true,
		"type": "HELICOPTER",
		"description": ""
	},
	{
		"province": "河北省",
		"city": "张家口市",
		"name": "拉斐水岸",
		"address": "河北省张家口市怀来县",
		"location": {
			"latitude": 40.297077178181,
			"longitude": 115.63992410898
		},
		"published": true,
		"type": "HELICOPTER",
		"description": ""
	},
	{
		"province": "河北省",
		"city": "秦皇岛市",
		"name": "S261省道旁院内",
		"address": "河北省秦皇岛市抚宁县S261(滨河东路)",
		"location": {
			"latitude": 39.910577830428,
			"longitude": 119.23359264642
		},
		"published": true,
		"type": "HELICOPTER",
		"description": ""
	},
	{
		"province": "河南省",
		"city": "三门峡市",
		"name": "灵宝豫西轴承有限公司",
		"address": "河南省三门峡市灵宝市",
		"location": {
			"latitude": 34.554571543416,
			"longitude": 110.89904016534
		},
		"published": true,
		"type": "HELICOPTER",
		"description": ""
	},
	{
		"province": "河南省",
		"city": "安阳市",
		"name": "林州通用机场位于林州市以西约3km处",
		"address": "河南省安阳市林州市",
		"location": {
			"latitude": 36.103413253063,
			"longitude": 113.77555448715
		},
		"published": true,
		"type": "HELICOPTER",
		"description": ""
	},
	{
		"province": "河南省",
		"city": "安阳市",
		"name": "白云通航安阳基地",
		"address": "河南省安阳市汤阴县S302(葛嘴线)",
		"location": {
			"latitude": 35.932200464832,
			"longitude": 114.33888798761
		},
		"published": true,
		"type": "HELICOPTER",
		"description": ""
	},
	{
		"province": "陕西省",
		"city": "渭南市",
		"name": "西部重工院内",
		"address": "陕西省渭南市临渭区良田服务区",
		"location": {
			"latitude": 34.488648755651,
			"longitude": 109.40941002363
		},
		"published": true,
		"type": "HELICOPTER",
		"description": ""
	},
	{
		"province": "陕西省",
		"city": "汉中市",
		"name": "职中驾校",
		"address": "陕西省汉中市宁强县G108(京昆线)",
		"location": {
			"latitude": 32.815502757897,
			"longitude": 106.23910540958
		},
		"published": true,
		"type": "HELICOPTER",
		"description": ""
	},
	{
		"province": "陕西省",
		"city": "宝鸡市",
		"name": "草甸宾馆",
		"address": "陕西省宝鸡市凤县滨江路",
		"location": {
			"latitude": 33.913983416737,
			"longitude": 106.53005192371
		},
		"published": true,
		"type": "HELICOPTER",
		"description": ""
	},
	{
		"province": "陕西省",
		"city": "榆林市",
		"name": "靖边县洲际环发垃圾资源无害化处理有限公司",
		"address": "陕西省榆林市靖边县G307(歧银线)",
		"location": {
			"latitude": 37.575989035152,
			"longitude": 108.84743258595
		},
		"published": true,
		"type": "HELICOPTER",
		"description": ""
	},
	{
		"province": "陕西省",
		"city": "榆林市",
		"name": "绥德正飞商贸有限公司",
		"address": "陕西省榆林市绥德县G210(包南线)",
		"location": {
			"latitude": 37.484442801578,
			"longitude": 110.29308695859
		},
		"published": true,
		"type": "HELICOPTER",
		"description": ""
	},
	{
		"province": "陕西省",
		"city": "榆林市",
		"name": "南大街大型车辆停车场",
		"address": "陕西省榆林市定边县G307(西环路)",
		"location": {
			"latitude": 37.570589668427,
			"longitude": 107.60006761412
		},
		"published": true,
		"type": "HELICOPTER",
		"description": ""
	},
	{
		"province": "陕西省",
		"city": "定西市",
		"name": "经济开发区岷海制药场内",
		"address": "甘肃省定西市岷县",
		"location": {
			"latitude": 34.444466724944,
			"longitude": 104.0248352562
		},
		"published": true,
		"type": "HELICOPTER",
		"description": ""
	},
	{
		"province": "陕西省",
		"city": "榆林市",
		"name": "城南芋则沟村安顺汽车服务公司",
		"address": "陕西省榆林市绥德县G210(包南线)",
		"location": {
			"latitude": 37.485551460103,
			"longitude": 110.29363503568
		},
		"published": true,
		"type": "HELICOPTER",
		"description": ""
	},
	{
		"province": "山东省",
		"city": "济宁市",
		"name": "济宁通用机场",
		"address": "山东省济宁市兖州市S104",
		"location": {
			"latitude": 35.469275250855,
			"longitude": 116.78646769793
		},
		"published": true,
		"type": "HELICOPTER",
		"description": ""
	},
	{
		"province": "山东省",
		"city": "莱芜市",
		"name": "雪野湖通用机场",
		"address": "山东省莱芜市莱城区S242",
		"location": {
			"latitude": 36.414059479311,
			"longitude": 117.57706168331
		},
		"published": true,
		"type": "HELICOPTER",
		"description": ""
	},
	{
		"province": "山东省",
		"city": "济南市",
		"name": "交通管理所",
		"address": "山东省济南市章丘市S321",
		"location": {
			"latitude": 36.916565386188,
			"longitude": 117.33849601496
		},
		"published": true,
		"type": "HELICOPTER",
		"description": ""
	},
	{
		"province": "山东省",
		"city": "济南市",
		"name": "直升机起降点",
		"address": "山东省济南市章丘市机场北路",
		"location": {
			"latitude": 36.900688692609,
			"longitude": 117.22528469423
		},
		"published": true,
		"type": "HELICOPTER",
		"description": ""
	},
	{
		"province": "山东省",
		"city": "济南市",
		"name": "水寨晶馫生态园",
		"address": "山东省济南市章丘市",
		"location": {
			"latitude": 36.880266385041,
			"longitude": 117.43313618508
		},
		"published": true,
		"type": "HELICOPTER",
		"description": ""
	},
	{
		"province": "山东省",
		"city": "济南市",
		"name": "未开通高速公路梁家村路段",
		"address": "山东省济南市商河县X253(燕韩路)",
		"location": {
			"latitude": 37.36817934955,
			"longitude": 117.26255749717
		},
		"published": true,
		"type": "HELICOPTER",
		"description": ""
	},
	{
		"province": "山东省",
		"city": "济南市",
		"name": "S248和X252交汇处",
		"address": "山东省济南市商河县X252",
		"location": {
			"latitude": 37.194800979406,
			"longitude": 117.17233199952
		},
		"published": true,
		"type": "HELICOPTER",
		"description": ""
	},
	{
		"province": "山东省",
		"city": "青岛市",
		"name": "李沧",
		"address": "山东省青岛市李沧区惠水路",
		"location": {
			"latitude": 36.167399203885,
			"longitude": 120.4800157421
		},
		"published": true,
		"type": "HELICOPTER",
		"description": ""
	},
	{
		"province": "山东省",
		"city": "德州市",
		"name": "德州医院",
		"address": "山东省德州市德城区新湖大街1751号",
		"location": {
			"latitude": 37.45700191862,
			"longitude": 116.31127442223
		},
		"published": true,
		"type": "HELICOPTER",
		"description": ""
	},
	{
		"province": "山东省",
		"city": "枣庄市",
		"name": "姜屯镇镇政府后院停车场",
		"address": "山东省枣庄市滕州市界姜路",
		"location": {
			"latitude": 35.100678019204,
			"longitude": 117.08472083533
		},
		"published": true,
		"type": "HELICOPTER",
		"description": ""
	},
	{
		"province": "山东省",
		"city": "枣庄市",
		"name": "西岗镇工厂大院",
		"address": "山东省枣庄市滕州市",
		"location": {
			"latitude": 34.986374753278,
			"longitude": 117.08414377958
		},
		"published": true,
		"type": "HELICOPTER",
		"description": ""
	},
	{
		"province": "山东省",
		"city": "枣庄市",
		"name": "姜屯镇补油点",
		"address": "山东省枣庄市滕州市",
		"location": {
			"latitude": 35.05516458152,
			"longitude": 117.10491771754
		},
		"published": true,
		"type": "HELICOPTER",
		"description": ""
	},
	{
		"province": "山东省",
		"city": "枣庄市",
		"name": "级索镇工厂大院",
		"address": "山东省枣庄市滕州市级西路",
		"location": {
			"latitude": 35.03339379983,
			"longitude": 117.04203394074
		},
		"published": true,
		"type": "HELICOPTER",
		"description": ""
	},
	{
		"province": "山东省",
		"city": "济南市",
		"name": "仁风镇工厂大院",
		"address": "山东省济南市济阳县X207",
		"location": {
			"latitude": 37.204787761913,
			"longitude": 117.38439913939
		},
		"published": true,
		"type": "HELICOPTER",
		"description": ""
	},
	{
		"province": "山东省",
		"city": "济南市",
		"name": "垛石镇菜市场大院",
		"address": "山东省济南市济阳县S248",
		"location": {
			"latitude": 37.07391526972,
			"longitude": 117.17158853436
		},
		"published": true,
		"type": "HELICOPTER",
		"description": ""
	},
	{
		"province": "山东省",
		"city": "济南市",
		"name": "玉皇庙镇农作物种植合作社大院",
		"address": "山东省济南市商河县玉皇路",
		"location": {
			"latitude": 37.181808633728,
			"longitude": 117.11536504716
		},
		"published": true,
		"type": "HELICOPTER",
		"description": ""
	},
	{
		"province": "山东省",
		"city": "潍坊市",
		"name": "山东有斐食品有限公司",
		"address": "山东省潍坊市昌邑市西环路",
		"location": {
			"latitude": 36.830728582695,
			"longitude": 119.35864081405
		},
		"published": true,
		"type": "HELICOPTER",
		"description": ""
	},
	{
		"province": "山东省",
		"city": "德州市",
		"name": "山东航远食品有限公司",
		"address": "山东省德州市禹城市文化街",
		"location": {
			"latitude": 36.951577714009,
			"longitude": 116.68957913747
		},
		"published": true,
		"type": "HELICOPTER",
		"description": ""
	},
	{
		"province": "山东省",
		"city": "东营市",
		"name": "虎林农场",
		"address": "山东省东营市广饶县齐安路",
		"location": {
			"latitude": 37.052949475254,
			"longitude": 118.37993980602
		},
		"published": true,
		"type": "HELICOPTER",
		"description": ""
	},
	{
		"province": "山东省",
		"city": "潍坊市",
		"name": "高新区宝通街东侧",
		"address": "山东省潍坊市奎文区宝通东街",
		"location": {
			"latitude": 36.686310258772,
			"longitude": 119.25639239818
		},
		"published": true,
		"type": "HELICOPTER",
		"description": ""
	},
	{
		"province": "山东省",
		"city": "潍坊市",
		"name": "高新区潍县路东方餐馆后院内",
		"address": "山东省潍坊市奎文区桃园街",
		"location": {
			"latitude": 36.707360585136,
			"longitude": 119.1900751602
		},
		"published": true,
		"type": "HELICOPTER",
		"description": ""
	},
	{
		"province": "山东省",
		"city": "青岛市",
		"name": "李沧区天水路竹子庵公园内",
		"address": "山东省青岛市李沧区天水路",
		"location": {
			"latitude": 36.20851002205,
			"longitude": 120.48441693672
		},
		"published": true,
		"type": "HELICOPTER",
		"description": ""
	},
	{
		"province": "山东省",
		"city": "青岛市",
		"name": "黄岛区泊里德通起重机院内",
		"address": "山东省青岛市黄岛区",
		"location": {
			"latitude": 35.740766308141,
			"longitude": 119.75875102774
		},
		"published": true,
		"type": "HELICOPTER",
		"description": ""
	},
	{
		"province": "山东省",
		"city": "青岛市",
		"name": "黄岛区204省道藏南院内",
		"address": "山东省青岛市黄岛区明富大道",
		"location": {
			"latitude": 35.835478378415,
			"longitude": 120.02136661531
		},
		"published": true,
		"type": "HELICOPTER",
		"description": ""
	},
	{
		"province": "山东省",
		"city": "青岛市",
		"name": "黄岛区明富大道旁院内空草坪",
		"address": "山东省青岛市黄岛区圣元路",
		"location": {
			"latitude": 35.844617524138,
			"longitude": 120.02388311625
		},
		"published": true,
		"type": "HELICOPTER",
		"description": ""
	},
	{
		"province": "甘肃省",
		"city": "白银市",
		"name": "会宁淀粉厂",
		"address": "甘肃省白银市会宁县北大街",
		"location": {
			"latitude": 35.707576589992,
			"longitude": 105.0472861281
		},
		"published": true,
		"type": "HELICOPTER",
		"description": ""
	},
	{
		"province": "甘肃省",
		"city": "白银市",
		"name": "会宁学校",
		"address": "甘肃省白银市会宁县长征北路",
		"location": {
			"latitude": 35.710865191849,
			"longitude": 105.05204923271
		},
		"published": true,
		"type": "HELICOPTER",
		"description": ""
	},
	{
		"province": "甘肃省",
		"city": "平凉市",
		"name": "欣叶集团院内",
		"address": "甘肃省平凉市静宁县欣叶路",
		"location": {
			"latitude": 35.550375601585,
			"longitude": 105.72930244343
		},
		"published": true,
		"type": "HELICOPTER",
		"description": ""
	},
	{
		"province": "甘肃省",
		"city": "固原市",
		"name": "泾河封闭小区内",
		"address": "宁夏回族自治区固原市泾源县西苑路",
		"location": {
			"latitude": 35.502018486993,
			"longitude": 106.34323077483
		},
		"published": true,
		"type": "HELICOPTER",
		"description": ""
	},
	{
		"province": "甘肃省",
		"city": "天水市",
		"name": "青山宾馆后院",
		"address": "甘肃省天水市清水县充国路",
		"location": {
			"latitude": 34.761947676768,
			"longitude": 106.14058063267
		},
		"published": true,
		"type": "HELICOPTER",
		"description": ""
	},
	{
		"province": "甘肃省",
		"city": "平凉市",
		"name": "东星牧业场",
		"address": "甘肃省平凉市崇信县S304",
		"location": {
			"latitude": 35.317404921145,
			"longitude": 107.0696415378
		},
		"published": true,
		"type": "HELICOPTER",
		"description": ""
	},
	{
		"province": "甘肃省",
		"city": "平凉市",
		"name": "公路养护院",
		"address": "甘肃省平凉市灵台县",
		"location": {
			"latitude": 35.070926011922,
			"longitude": 107.600960997
		},
		"published": true,
		"type": "HELICOPTER",
		"description": ""
	},
	{
		"province": "甘肃省",
		"city": "平凉市",
		"name": "黄浦敏制药厂",
		"address": "甘肃省平凉市灵台县皇甫路",
		"location": {
			"latitude": 35.074678234267,
			"longitude": 107.61064172293
		},
		"published": true,
		"type": "HELICOPTER",
		"description": ""
	},
	{
		"province": "甘肃省",
		"city": "庆阳市",
		"name": "正宁路政院内",
		"address": "甘肃省庆阳市正宁县城南街21号",
		"location": {
			"latitude": 35.493323346896,
			"longitude": 108.36712815734
		},
		"published": true,
		"type": "HELICOPTER",
		"description": ""
	},
	{
		"province": "甘肃省",
		"city": "张掖市",
		"name": "直升机起降点",
		"address": "甘肃省张掖市临泽县雪晶路",
		"location": {
			"latitude": 39.153238410297,
			"longitude": 100.18448057397
		},
		"published": true,
		"type": "HELICOPTER",
		"description": ""
	},
	{
		"province": "甘肃省",
		"city": "临夏回族自治州",
		"name": "直升机起降点",
		"address": "甘肃省临夏回族自治州永靖县",
		"location": {
			"latitude": 35.974872677886,
			"longitude": 103.30931623875
		},
		"published": true,
		"type": "HELICOPTER",
		"description": ""
	},
	{
		"province": "甘肃省",
		"city": "临夏回族自治州",
		"name": "直升机起降点",
		"address": "甘肃省临夏回族自治州永靖县G213(兰磨线)",
		"location": {
			"latitude": 35.943174186821,
			"longitude": 103.35144986835
		},
		"published": true,
		"type": "HELICOPTER",
		"description": ""
	},
	{
		"province": "甘肃省",
		"city": "嘉峪关市",
		"name": "大型停车场",
		"address": "甘肃省嘉峪关市嘉峪关市市辖区镜铁西路",
		"location": {
			"latitude": 39.791261921084,
			"longitude": 98.257334686023
		},
		"published": true,
		"type": "HELICOPTER",
		"description": ""
	},
	{
		"province": "甘肃省",
		"city": "武威市",
		"name": "运政管理所",
		"address": "甘肃省武威市天祝藏族自治县滨河东路",
		"location": {
			"latitude": 36.976071369741,
			"longitude": 103.1559587114
		},
		"published": true,
		"type": "HELICOPTER",
		"description": ""
	},
	{
		"province": "甘肃省",
		"city": "武威市",
		"name": "正阳集团",
		"address": "甘肃省武威市天祝藏族自治县滨河路",
		"location": {
			"latitude": 36.969381743435,
			"longitude": 103.15290436278
		},
		"published": true,
		"type": "HELICOPTER",
		"description": ""
	},
	{
		"province": "甘肃省",
		"city": "白银市",
		"name": "平川高尔夫球场",
		"address": "甘肃省白银市平川区",
		"location": {
			"latitude": 36.734121103393,
			"longitude": 104.81245033908
		},
		"published": true,
		"type": "HELICOPTER",
		"description": ""
	},
	{
		"province": "甘肃省",
		"city": "兰州市",
		"name": "榆中县金牛广场北侧200米",
		"address": "甘肃省兰州市榆中县栖云北路",
		"location": {
			"latitude": 35.875612681053,
			"longitude": 104.10829769883
		},
		"published": true,
		"type": "HELICOPTER",
		"description": ""
	},
	{
		"province": "甘肃省",
		"city": "酒泉市",
		"name": "G30高速柳园出口、高速管理处院内",
		"address": "甘肃省酒泉市瓜州县",
		"location": {
			"latitude": 41.06824718826,
			"longitude": 95.458090185492
		},
		"published": true,
		"type": "HELICOPTER",
		"description": ""
	},
	{
		"province": "甘肃省",
		"city": "金昌市",
		"name": "废弃工厂大院",
		"address": "甘肃省金昌市金川区",
		"location": {
			"latitude": 38.543639189863,
			"longitude": 102.24191771666
		},
		"published": true,
		"type": "HELICOPTER",
		"description": ""
	},
	{
		"province": "甘肃省",
		"city": "张掖市",
		"name": "废弃工厂大院",
		"address": "甘肃省张掖市临泽县雪晶路",
		"location": {
			"latitude": 39.153239464237,
			"longitude": 100.18447841618
		},
		"published": true,
		"type": "HELICOPTER",
		"description": ""
	},
	{
		"province": "甘肃省",
		"city": "酒泉市",
		"name": "国风酒店",
		"address": "甘肃省酒泉市瓜州县瓜州大道174",
		"location": {
			"latitude": 40.520078840328,
			"longitude": 95.784128863238
		},
		"published": true,
		"type": "HELICOPTER",
		"description": ""
	},
	{
		"province": "甘肃省",
		"city": "陇南市",
		"name": "直升机起降点",
		"address": "甘肃省陇南市礼县北关路",
		"location": {
			"latitude": 34.211749101349,
			"longitude": 105.18906403039
		},
		"published": true,
		"type": "HELICOPTER",
		"description": ""
	},
	{
		"province": "甘肃省",
		"city": "陇南市",
		"name": "直升机起降点",
		"address": "甘肃省陇南市宕昌县G212(兰渝线)",
		"location": {
			"latitude": 34.042414796705,
			"longitude": 104.40644635309
		},
		"published": true,
		"type": "HELICOPTER",
		"description": ""
	},
	{
		"province": "甘肃省",
		"city": "陇南市",
		"name": "直升机起降点",
		"address": "甘肃省陇南市成县",
		"location": {
			"latitude": 33.762244897236,
			"longitude": 105.7515046758
		},
		"published": true,
		"type": "HELICOPTER",
		"description": ""
	},
	{
		"province": "甘肃省",
		"city": "天水市",
		"name": "直升机起降点",
		"address": "甘肃省天水市秦州区藉河南路",
		"location": {
			"latitude": 34.576355979399,
			"longitude": 105.72004598739
		},
		"published": true,
		"type": "HELICOPTER",
		"description": ""
	},
	{
		"province": "甘肃省",
		"city": "天水市",
		"name": "高速路修建单位大院",
		"address": "甘肃省天水市秦州区G30(连霍高速)",
		"location": {
			"latitude": 34.575556379505,
			"longitude": 105.68621821578
		},
		"published": true,
		"type": "HELICOPTER",
		"description": ""
	},
	{
		"province": "山西省",
		"city": "临汾市",
		"name": "翼城大众饲料公司 ",
		"address": "山西省临汾市翼城县S230",
		"location": {
			"latitude": 35.718879528384,
			"longitude": 111.71847415236
		},
		"published": true,
		"type": "HELICOPTER",
		"description": ""
	},
	{
		"province": "山西省",
		"city": "临汾市",
		"name": "戎子酒庄有限公司",
		"address": "山西省临汾市乡宁县",
		"location": {
			"latitude": 36.032737413629,
			"longitude": 110.83112692308
		},
		"published": true,
		"type": "HELICOPTER",
		"description": ""
	},
	{
		"province": "山西省",
		"city": "运城市",
		"name": "临猗康体食品厂 ",
		"address": "山西省运城市临猗县",
		"location": {
			"latitude": 35.140827075713,
			"longitude": 110.81878948157
		},
		"published": true,
		"type": "HELICOPTER",
		"description": ""
	},
	{
		"province": "山西省",
		"city": "运城市",
		"name": "临猗三中西门外 ",
		"address": "山西省运城市临猗县丰喜大道",
		"location": {
			"latitude": 35.13868243529,
			"longitude": 110.79537397421
		},
		"published": true,
		"type": "HELICOPTER",
		"description": ""
	},
	{
		"province": "山西省",
		"city": "运城市",
		"name": "内城永乐宫停车场",
		"address": "山西省运城市芮城县永乐北路",
		"location": {
			"latitude": 34.721481335172,
			"longitude": 110.70033993046
		},
		"published": true,
		"type": "HELICOPTER",
		"description": ""
	},
	{
		"province": "山西省",
		"city": "朔州市",
		"name": "朔州消防训练基地",
		"address": "山西省朔州市朔城区顺义路",
		"location": {
			"latitude": 39.3721969389,
			"longitude": 112.43494291953
		},
		"published": true,
		"type": "HELICOPTER",
		"description": ""
	},
	{
		"province": "山西省",
		"city": "忻州市",
		"name": "偏关宾馆",
		"address": "山西省忻州市偏关县凌霄路",
		"location": {
			"latitude": 39.442297028857,
			"longitude": 111.51592652663
		},
		"published": true,
		"type": "HELICOPTER",
		"description": ""
	},
	{
		"province": "山西省",
		"city": "忻州市",
		"name": "500KV开关站",
		"address": "山西省忻州市忻府区",
		"location": {
			"latitude": 38.460010337137,
			"longitude": 112.65400575701
		},
		"published": true,
		"type": "HELICOPTER",
		"description": ""
	},
	{
		"province": "山西省",
		"city": "晋城市",
		"name": "高平",
		"address": "山西省晋城市高平市S227",
		"location": {
			"latitude": 35.804576067573,
			"longitude": 112.91282167522
		},
		"published": true,
		"type": "HELICOPTER",
		"description": ""
	},
	{
		"province": "山西省",
		"city": "吕梁市",
		"name": "离石民兵训练基地",
		"address": "山西省吕梁市离石区",
		"location": {
			"latitude": 37.5199597603,
			"longitude": 111.23267507678
		},
		"published": true,
		"type": "HELICOPTER",
		"description": ""
	},
	{
		"province": "山西省",
		"city": "晋中市",
		"name": "祁县克代尔啤酒厂 ",
		"address": "山西省晋中市祁县",
		"location": {
			"latitude": 37.397860906716,
			"longitude": 112.32565176598
		},
		"published": true,
		"type": "HELICOPTER",
		"description": ""
	},
	{
		"province": "山西省",
		"city": "临汾市",
		"name": "上友村",
		"address": "山西省临汾市隰县G209(呼北线)",
		"location": {
			"latitude": 36.750325085401,
			"longitude": 110.96483161196
		},
		"published": true,
		"type": "HELICOPTER",
		"description": ""
	},
	{
		"province": "山西省",
		"city": "临汾市",
		"name": "霍州047部队营院",
		"address": "山西省临汾市霍州市营盘街",
		"location": {
			"latitude": 36.586659644506,
			"longitude": 111.73609788165
		},
		"published": true,
		"type": "HELICOPTER",
		"description": ""
	},
	{
		"province": "山西省",
		"city": "临汾市",
		"name": "阳光绿州生态园",
		"address": "山西省临汾市霍州市上霍线",
		"location": {
			"latitude": 36.583056768156,
			"longitude": 111.80070426586
		},
		"published": true,
		"type": "HELICOPTER",
		"description": ""
	},
	{
		"province": "山西省",
		"city": "晋中市",
		"name": "左权县职业技术中学",
		"address": "山西省晋中市左权县北大街",
		"location": {
			"latitude": 37.094631769448,
			"longitude": 113.3544583461
		},
		"published": true,
		"type": "HELICOPTER",
		"description": ""
	},
	{
		"province": "山西省",
		"city": "长治市",
		"name": "潞城宾馆",
		"address": "山西省长治市潞城市中华大街895号",
		"location": {
			"latitude": 36.331093423304,
			"longitude": 113.26045500154
		},
		"published": true,
		"type": "HELICOPTER",
		"description": ""
	},
	{
		"province": "山西省",
		"city": "忻州市",
		"name": "直升机起降点",
		"address": "山西省忻州市宁武县宁白线",
		"location": {
			"latitude": 38.982632815347,
			"longitude": 112.27902185445
		},
		"published": true,
		"type": "HELICOPTER",
		"description": ""
	},
	{
		"province": "山西省",
		"city": "吕梁市",
		"name": "离石民兵训练基地",
		"address": "山西省吕梁市离石区",
		"location": {
			"latitude": 37.519957699926,
			"longitude": 111.23268453594
		},
		"published": true,
		"type": "HELICOPTER",
		"description": ""
	},
	{
		"province": "山西省",
		"city": "晋中市",
		"name": "祁县克代尔啤酒厂 ",
		"address": "山西省晋中市祁县",
		"location": {
			"latitude": 37.397855751478,
			"longitude": 112.32564797331
		},
		"published": true,
		"type": "HELICOPTER",
		"description": ""
	},
	{
		"province": "山西省",
		"city": "晋中市",
		"name": "左权县职业技术中学",
		"address": "山西省晋中市左权县北大街",
		"location": {
			"latitude": 37.094626344452,
			"longitude": 113.3544586119
		},
		"published": true,
		"type": "HELICOPTER",
		"description": ""
	},
	{
		"province": "山西省",
		"city": "忻州市",
		"name": "五台山起降点",
		"address": "山西省忻州市五台县五台山服务区",
		"location": {
			"latitude": 38.81439449354,
			"longitude": 113.70351832624
		},
		"published": true,
		"type": "HELICOPTER",
		"description": ""
	},
	{
		"province": "山西省",
		"city": "晋中市",
		"name": "祁县城赵镇水力加油站后面停车场",
		"address": "山西省晋中市祁县G108(京昆线)",
		"location": {
			"latitude": 37.365820061097,
			"longitude": 112.29711898688
		},
		"published": true,
		"type": "HELICOPTER",
		"description": ""
	},
	{
		"province": "青海省",
		"city": "果洛藏族自治州",
		"name": "达日武装部",
		"address": "青海省果洛藏族自治州达日县建设路",
		"location": {
			"latitude": 33.75332684447,
			"longitude": 99.657190927861
		},
		"published": true,
		"type": "HELICOPTER",
		"description": ""
	},
	{
		"province": "青海省",
		"city": "北京市",
		"name": "国家网球中心西北侧广场。",
		"address": "北京市朝阳区林萃路",
		"location": {
			"latitude": 40.027203142893,
			"longitude": 116.38159859241
		},
		"published": true,
		"type": "HELICOPTER",
		"description": ""
	},
	{
		"province": "青海省",
		"city": "海南藏族自治州",
		"name": "共和武警支队",
		"address": "青海省海南藏族自治州共和县绿洲南路232号",
		"location": {
			"latitude": 36.265054260138,
			"longitude": 100.61620315367
		},
		"published": true,
		"type": "HELICOPTER",
		"description": ""
	},
	{
		"province": "青海省",
		"city": "海西蒙古族藏族自治州",
		"name": "南郊停车场",
		"address": "青海省海西蒙古族藏族自治州格尔木市G215(盐桥南路)",
		"location": {
			"latitude": 36.377484632883,
			"longitude": 94.870042630956
		},
		"published": true,
		"type": "HELICOPTER",
		"description": ""
	},
	{
		"province": "青海省",
		"city": "海西蒙古族藏族自治州",
		"name": "纳赤台兵站",
		"address": "青海省海西蒙古族藏族自治州格尔木市G109(京拉线)",
		"location": {
			"latitude": 35.881235304351,
			"longitude": 94.57116949646
		},
		"published": true,
		"type": "HELICOPTER",
		"description": ""
	},
	{
		"province": "青海省",
		"city": "海西蒙古族藏族自治州",
		"name": "沱沱河兵站",
		"address": "青海省海西蒙古族藏族自治州格尔木市",
		"location": {
			"latitude": 34.220004462852,
			"longitude": 92.455871237528
		},
		"published": true,
		"type": "HELICOPTER",
		"description": ""
	},
	{
		"province": "青海省",
		"city": "果洛藏族自治州",
		"name": "优云乡",
		"address": "青海省果洛藏族自治州玛沁县S205",
		"location": {
			"latitude": 34.284599818985,
			"longitude": 99.20141292476
		},
		"published": true,
		"type": "HELICOPTER",
		"description": ""
	},
	{
		"province": "青海省",
		"city": "海北藏族自治州",
		"name": "刚察宾馆",
		"address": "青海省海北藏族自治州刚察县",
		"location": {
			"latitude": 37.3295718814,
			"longitude": 100.15753965879
		},
		"published": true,
		"type": "HELICOPTER",
		"description": ""
	},
	{
		"province": "青海省",
		"city": "海西蒙古族藏族自治州",
		"name": "蓄集乡",
		"address": "青海省海西蒙古族藏族自治州德令哈市G315(西莎线)",
		"location": {
			"latitude": 37.355144801017,
			"longitude": 97.81221278523
		},
		"published": true,
		"type": "HELICOPTER",
		"description": ""
	},
	{
		"province": "青海省",
		"city": "海西蒙古族藏族自治州",
		"name": "怀头他拉镇",
		"address": "青海省海西蒙古族藏族自治州德令哈市",
		"location": {
			"latitude": 37.349290428021,
			"longitude": 96.740752938319
		},
		"published": true,
		"type": "HELICOPTER",
		"description": ""
	},
	{
		"province": "青海省",
		"city": "西宁市",
		"name": "大通县鹞子沟国家森林公园景区内",
		"address": "青海省西宁市大通回族土族自治县衙刁段",
		"location": {
			"latitude": 37.0378491974,
			"longitude": 101.81514944507
		},
		"published": true,
		"type": "HELICOPTER",
		"description": ""
	},
	{
		"province": "青海省",
		"city": "果洛藏族自治州",
		"name": "牧草加工厂",
		"address": "青海省果洛藏族自治州玛多县滨河东路",
		"location": {
			"latitude": 34.919341878244,
			"longitude": 98.224309686167
		},
		"published": true,
		"type": "HELICOPTER",
		"description": ""
	},
	{
		"province": "青海省",
		"city": "果洛藏族自治州",
		"name": "武警大院",
		"address": "青海省果洛藏族自治州玛多县西大街36号",
		"location": {
			"latitude": 34.920807572591,
			"longitude": 98.213463920814
		},
		"published": true,
		"type": "HELICOPTER",
		"description": ""
	},
	{
		"province": "青海省",
		"city": "西宁市",
		"name": "湟源陶然商务酒店",
		"address": "青海省西宁市湟源县G315(西莎线)",
		"location": {
			"latitude": 36.707905335188,
			"longitude": 101.22711282884
		},
		"published": true,
		"type": "HELICOPTER",
		"description": ""
	},
	{
		"province": "青海省",
		"city": "海南藏族自治州",
		"name": "梨园林卡酒店",
		"address": "青海省海南藏族自治州贵德县祥云路38",
		"location": {
			"latitude": 36.041209532952,
			"longitude": 101.43532492058
		},
		"published": true,
		"type": "HELICOPTER",
		"description": ""
	},
	{
		"province": "青海省",
		"city": "海北藏族自治州",
		"name": "环卫局停车场",
		"address": "青海省海北藏族自治州刚察县G315(东大街)",
		"location": {
			"latitude": 37.329539991833,
			"longitude": 100.14630102743
		},
		"published": true,
		"type": "HELICOPTER",
		"description": ""
	},
	{
		"province": "青海省",
		"city": "海西蒙古族藏族自治州",
		"name": "甘龙食品厂",
		"address": "青海省海西蒙古族藏族自治州天峻县",
		"location": {
			"latitude": 37.300317542699,
			"longitude": 99.033921584023
		},
		"published": true,
		"type": "HELICOPTER",
		"description": ""
	},
	{
		"province": "青海省",
		"city": "西宁市",
		"name": "鹞子沟国家森林公园景区",
		"address": "青海省西宁市大通回族土族自治县衙刁段",
		"location": {
			"latitude": 37.037845984702,
			"longitude": 101.81514482099
		},
		"published": true,
		"type": "HELICOPTER",
		"description": ""
	},
	{
		"province": "西藏自治区",
		"city": "那曲地区",
		"name": "安多武警二大队",
		"address": "西藏自治区那曲地区安多县沈阳南路17",
		"location": {
			"latitude": 32.262305006123,
			"longitude": 91.684008119744
		},
		"published": true,
		"type": "HELICOPTER",
		"description": ""
	},
	{
		"province": "西藏自治区",
		"city": "那曲地区",
		"name": "那曲武警一大队",
		"address": "西藏自治区那曲地区那曲县",
		"location": {
			"latitude": 31.454809629763,
			"longitude": 92.019343752987
		},
		"published": true,
		"type": "HELICOPTER",
		"description": ""
	},
	{
		"province": "西藏自治区",
		"city": "拉萨市",
		"name": "当雄兵站",
		"address": "西藏自治区拉萨市当雄县通站路",
		"location": {
			"latitude": 30.48063580714,
			"longitude": 91.113067813442
		},
		"published": true,
		"type": "HELICOPTER",
		"description": ""
	},
	{
		"province": "内蒙古自治区",
		"city": "呼和浩特市",
		"name": "武川县国土资源局",
		"address": "内蒙古自治区呼和浩特市武川县富强路",
		"location": {
			"latitude": 41.090781078171,
			"longitude": 111.47304181425
		},
		"published": true,
		"type": "HELICOPTER",
		"description": ""
	},
	{
		"province": "内蒙古自治区",
		"city": "呼和浩特市",
		"name": "武川县武川宾馆停车场",
		"address": "内蒙古自治区呼和浩特市武川县文化东街",
		"location": {
			"latitude": 41.10719712165,
			"longitude": 111.46465370509
		},
		"published": true,
		"type": "HELICOPTER",
		"description": ""
	},
	{
		"province": "内蒙古自治区",
		"city": "阿拉善盟",
		"name": "内蒙乌海金沙苑",
		"address": "内蒙古自治区阿拉善盟阿拉善左旗",
		"location": {
			"latitude": 39.650799717219,
			"longitude": 106.68792555352
		},
		"published": true,
		"type": "HELICOPTER",
		"description": ""
	},
	{
		"province": "内蒙古自治区",
		"city": "赤峰市",
		"name": "元宝山粮仓",
		"address": "内蒙古自治区赤峰市元宝山区",
		"location": {
			"latitude": 42.31696185687,
			"longitude": 119.32278893036
		},
		"published": true,
		"type": "HELICOPTER",
		"description": ""
	},
	{
		"province": "内蒙古自治区",
		"city": "赤峰市",
		"name": "翁牛特旗粮仓",
		"address": "内蒙古自治区赤峰市翁牛特旗红山街",
		"location": {
			"latitude": 42.924407705101,
			"longitude": 119.00611056466
		},
		"published": true,
		"type": "HELICOPTER",
		"description": ""
	},
	{
		"province": "内蒙古自治区",
		"city": "赤峰市",
		"name": "农家院",
		"address": "内蒙古自治区赤峰市巴林右旗益和诺尔街",
		"location": {
			"latitude": 43.531981207259,
			"longitude": 118.72755124095
		},
		"published": true,
		"type": "HELICOPTER",
		"description": ""
	},
	{
		"province": "内蒙古自治区",
		"city": "赤峰市",
		"name": "白音乌拉小学",
		"address": "内蒙古自治区赤峰市巴林左旗",
		"location": {
			"latitude": 44.259488411148,
			"longitude": 118.97511216756
		},
		"published": true,
		"type": "HELICOPTER",
		"description": ""
	},
	{
		"province": "内蒙古自治区",
		"city": "锡林郭勒盟",
		"name": "罕乌拉派出所",
		"address": "内蒙古自治区锡林郭勒盟西乌珠穆沁旗",
		"location": {
			"latitude": 44.78543530998,
			"longitude": 118.76642868994
		},
		"published": true,
		"type": "HELICOPTER",
		"description": ""
	},
	{
		"province": "内蒙古自治区",
		"city": "通辽市",
		"name": "露天煤矿宾馆",
		"address": "内蒙古自治区通辽市霍林郭勒市中心路",
		"location": {
			"latitude": 45.526626275533,
			"longitude": 119.66582759323
		},
		"published": true,
		"type": "HELICOPTER",
		"description": ""
	},
	{
		"province": "内蒙古自治区",
		"city": "呼伦贝尔市",
		"name": "扎兰屯机场",
		"address": "内蒙古自治区呼伦贝尔市扎兰屯市",
		"location": {
			"latitude": 48.054660715174,
			"longitude": 122.71181045213
		},
		"published": true,
		"type": "HELICOPTER",
		"description": ""
	},
	{
		"province": "内蒙古自治区",
		"city": "呼伦贝尔市",
		"name": "巴林起降点",
		"address": "内蒙古自治区呼伦贝尔市牙克石市S302",
		"location": {
			"latitude": 48.253503104545,
			"longitude": 122.3080390033
		},
		"published": true,
		"type": "HELICOPTER",
		"description": ""
	},
	{
		"province": "内蒙古自治区",
		"city": "呼伦贝尔市",
		"name": "博客图宾馆",
		"address": "内蒙古自治区呼伦贝尔市牙克石市",
		"location": {
			"latitude": 48.662436315654,
			"longitude": 121.76312752385
		},
		"published": true,
		"type": "HELICOPTER",
		"description": ""
	},
	{
		"province": "内蒙古自治区",
		"city": "呼伦贝尔市",
		"name": "乌奴耳林场",
		"address": "内蒙古自治区呼伦贝尔市牙克石市G301(绥满线)",
		"location": {
			"latitude": 48.864142274605,
			"longitude": 121.24822799672
		},
		"published": true,
		"type": "HELICOPTER",
		"description": ""
	},
	{
		"province": "内蒙古自治区",
		"city": "呼伦贝尔市",
		"name": "互助物流",
		"address": "内蒙古自治区呼伦贝尔市陈巴尔虎旗",
		"location": {
			"latitude": 49.331611843315,
			"longitude": 119.75876691231
		},
		"published": true,
		"type": "HELICOPTER",
		"description": ""
	},
	{
		"province": "内蒙古自治区",
		"city": "呼伦贝尔市",
		"name": "伊敏河污水处理厂",
		"address": "内蒙古自治区呼伦贝尔市鄂温克族自治旗",
		"location": {
			"latitude": 48.616986024916,
			"longitude": 119.69298853392
		},
		"published": true,
		"type": "HELICOPTER",
		"description": ""
	},
	{
		"province": "内蒙古自治区",
		"city": "通辽市",
		"name": "巴镇中心学校",
		"address": "内蒙古自治区通辽市扎鲁特旗",
		"location": {
			"latitude": 45.079357470599,
			"longitude": 120.34846396551
		},
		"published": true,
		"type": "HELICOPTER",
		"description": ""
	},
	{
		"province": "内蒙古自治区",
		"city": "通辽市",
		"name": "华府宾馆",
		"address": "内蒙古自治区通辽市扎鲁特旗泰山路",
		"location": {
			"latitude": 44.569667470456,
			"longitude": 120.89360104181
		},
		"published": true,
		"type": "HELICOPTER",
		"description": ""
	},
	{
		"province": "内蒙古自治区",
		"city": "通辽市",
		"name": "阳光宾馆",
		"address": "内蒙古自治区通辽市开鲁县",
		"location": {
			"latitude": 43.584591350709,
			"longitude": 121.33871746328
		},
		"published": true,
		"type": "HELICOPTER",
		"description": ""
	},
	{
		"province": "内蒙古自治区",
		"city": "阿拉善盟",
		"name": "乌斯太庆华公司",
		"address": "内蒙古自治区阿拉善盟阿拉善左旗庆华连接线",
		"location": {
			"latitude": 39.40906406666,
			"longitude": 106.68978705639
		},
		"published": true,
		"type": "HELICOPTER",
		"description": ""
	},
	{
		"province": "内蒙古自治区",
		"city": "阿拉善盟",
		"name": "胡杨林景区",
		"address": "内蒙古自治区阿拉善盟额济纳旗滨河路",
		"location": {
			"latitude": 41.961038564874,
			"longitude": 101.08668314192
		},
		"published": true,
		"type": "HELICOPTER",
		"description": ""
	},
	{
		"province": "内蒙古自治区",
		"city": "阿拉善盟",
		"name": "黑鹰山起降场地",
		"address": "内蒙古自治区阿拉善盟额济纳旗",
		"location": {
			"latitude": 42.297295629782,
			"longitude": 98.414945657557
		},
		"published": true,
		"type": "HELICOPTER",
		"description": ""
	},
	{
		"province": "内蒙古自治区",
		"city": "阿拉善盟",
		"name": "1、阿拉善右旗跑马场",
		"address": "内蒙古自治区阿拉善盟阿拉善右旗曼德拉路",
		"location": {
			"latitude": 39.222828579176,
			"longitude": 101.67047598524
		},
		"published": true,
		"type": "HELICOPTER",
		"description": ""
	},
	{
		"province": "内蒙古自治区",
		"city": "阿拉善盟",
		"name": "阿拉善右旗矿区",
		"address": "内蒙古自治区阿拉善盟阿拉善右旗曼德拉路",
		"location": {
			"latitude": 39.222830577211,
			"longitude": 101.67046943731
		},
		"published": true,
		"type": "HELICOPTER",
		"description": ""
	},
	{
		"province": "内蒙古自治区",
		"city": "阿拉善盟",
		"name": "腾格里工业园",
		"address": "内蒙古自治区阿拉善盟阿拉善左旗",
		"location": {
			"latitude": 37.696872367777,
			"longitude": 104.9919881252
		},
		"published": true,
		"type": "HELICOPTER",
		"description": ""
	},
	{
		"province": "内蒙古自治区",
		"city": "吴忠市",
		"name": "太阳山",
		"address": "宁夏回族自治区吴忠市红寺堡区",
		"location": {
			"latitude": 37.4199500787,
			"longitude": 106.59020225229
		},
		"published": true,
		"type": "HELICOPTER",
		"description": ""
	},
	{
		"province": "内蒙古自治区",
		"city": "阿拉善盟",
		"name": "阿拉善左旗北寺",
		"address": "内蒙古自治区阿拉善盟阿拉善左旗",
		"location": {
			"latitude": 38.886996639847,
			"longitude": 105.74136869563
		},
		"published": true,
		"type": "HELICOPTER",
		"description": ""
	},
	{
		"province": "内蒙古自治区",
		"city": "阿拉善盟",
		"name": "阿拉善左旗北寺狩猎场",
		"address": "内蒙古自治区阿拉善盟阿拉善左旗",
		"location": {
			"latitude": 39.023665560163,
			"longitude": 105.91814198863
		},
		"published": true,
		"type": "HELICOPTER",
		"description": ""
	},
	{
		"province": "内蒙古自治区",
		"city": "巴彦淖尔市",
		"name": "288口岸",
		"address": "内蒙古自治区巴彦淖尔市乌拉特中旗",
		"location": {
			"latitude": 42.345176890604,
			"longitude": 107.61881114408
		},
		"published": true,
		"type": "HELICOPTER",
		"description": ""
	},
	{
		"province": "内蒙古自治区",
		"city": "包头市",
		"name": "满都拉口案宾馆",
		"address": "内蒙古自治区包头市达尔罕茂明安联合旗X926",
		"location": {
			"latitude": 42.540688585754,
			"longitude": 110.13762230659
		},
		"published": true,
		"type": "HELICOPTER",
		"description": ""
	},
	{
		"province": "内蒙古自治区",
		"city": "阿拉善盟",
		"name": "乌斯太",
		"address": "内蒙古自治区阿拉善盟阿拉善左旗庆华连接线",
		"location": {
			"latitude": 39.409086585785,
			"longitude": 106.68987475876
		},
		"published": true,
		"type": "HELICOPTER",
		"description": ""
	},
	{
		"province": "内蒙古自治区",
		"city": "阿拉善盟",
		"name": "乌力吉",
		"address": "内蒙古自治区阿拉善盟阿拉善左旗",
		"location": {
			"latitude": 40.75884686084,
			"longitude": 104.51749722119
		},
		"published": true,
		"type": "HELICOPTER",
		"description": ""
	},
	{
		"province": "内蒙古自治区",
		"city": "阿拉善盟",
		"name": "额济纳旗",
		"address": "内蒙古自治区阿拉善盟额济纳旗",
		"location": {
			"latitude": 41.942289625123,
			"longitude": 101.04379510074
		},
		"published": true,
		"type": "HELICOPTER",
		"description": ""
	},
	{
		"province": "内蒙古自治区",
		"city": "阿拉善盟",
		"name": "腾格里",
		"address": "内蒙古自治区阿拉善盟阿拉善左旗",
		"location": {
			"latitude": 37.696977500918,
			"longitude": 104.99202279374
		},
		"published": true,
		"type": "HELICOPTER",
		"description": ""
	},
	{
		"province": "内蒙古自治区",
		"city": "包头市",
		"name": "土默特右旗",
		"address": "内蒙古自治区包头市土默特右旗X064",
		"location": {
			"latitude": 40.52592935016,
			"longitude": 110.54364787403
		},
		"published": true,
		"type": "HELICOPTER",
		"description": ""
	},
	{
		"province": "内蒙古自治区",
		"city": "宜昌市",
		"name": "土默特右旗",
		"address": "湖北省宜昌市长阳土家族自治县",
		"location": {
			"latitude": 30.583955776082,
			"longitude": 110.53771555667
		},
		"published": true,
		"type": "HELICOPTER",
		"description": ""
	},
	{
		"province": "内蒙古自治区",
		"city": "巴彦淖尔市",
		"name": "地质公园起降点",
		"address": "内蒙古自治区巴彦淖尔市乌拉特中旗",
		"location": {
			"latitude": 41.344886629715,
			"longitude": 108.52069480223
		},
		"published": true,
		"type": "HELICOPTER",
		"description": ""
	},
	{
		"province": "内蒙古自治区",
		"city": "巴彦淖尔市",
		"name": "温根塔拉旅游中心",
		"address": "内蒙古自治区巴彦淖尔市乌拉特中旗",
		"location": {
			"latitude": 41.447618264243,
			"longitude": 108.47217260612
		},
		"published": true,
		"type": "HELICOPTER",
		"description": ""
	},
	{
		"province": "内蒙古自治区",
		"city": "巴彦淖尔市",
		"name": "牧人之家起降点",
		"address": "内蒙古自治区巴彦淖尔市乌拉特中旗",
		"location": {
			"latitude": 41.448934511268,
			"longitude": 108.56836960221
		},
		"published": true,
		"type": "HELICOPTER",
		"description": ""
	},
	{
		"province": "内蒙古自治区",
		"city": "巴彦淖尔市",
		"name": "甘其毛都口岸",
		"address": "内蒙古自治区巴彦淖尔市乌拉特中旗",
		"location": {
			"latitude": 42.343006598203,
			"longitude": 107.62124084888
		},
		"published": true,
		"type": "HELICOPTER",
		"description": ""
	},
	{
		"province": "内蒙古自治区",
		"city": "巴彦淖尔市",
		"name": "乌梁素海",
		"address": "内蒙古自治区巴彦淖尔市乌拉特前旗",
		"location": {
			"latitude": 40.870231185212,
			"longitude": 108.86415347154
		},
		"published": true,
		"type": "HELICOPTER",
		"description": ""
	},
	{
		"province": "内蒙古自治区",
		"city": "巴彦淖尔市",
		"name": "乌拉特部落",
		"address": "内蒙古自治区巴彦淖尔市乌拉特前旗",
		"location": {
			"latitude": 40.661690416662,
			"longitude": 109.27671785419
		},
		"published": true,
		"type": "HELICOPTER",
		"description": ""
	},
	{
		"province": "内蒙古自治区",
		"city": "巴彦淖尔市",
		"name": "东物流起降点",
		"address": "内蒙古自治区巴彦淖尔市临河区",
		"location": {
			"latitude": 40.859344839527,
			"longitude": 107.56289884648
		},
		"published": true,
		"type": "HELICOPTER",
		"description": ""
	},
	{
		"province": "内蒙古自治区",
		"city": "巴彦淖尔市",
		"name": "湿地公园",
		"address": "内蒙古自治区巴彦淖尔市临河区金川大道",
		"location": {
			"latitude": 40.735269875341,
			"longitude": 107.40699438778
		},
		"published": true,
		"type": "HELICOPTER",
		"description": ""
	},
	{
		"province": "内蒙古自治区",
		"city": "巴彦淖尔市",
		"name": "匈奴城起降点",
		"address": "内蒙古自治区巴彦淖尔市乌拉特后旗",
		"location": {
			"latitude": 40.884633582413,
			"longitude": 106.62838245456
		},
		"published": true,
		"type": "HELICOPTER",
		"description": ""
	},
	{
		"province": "内蒙古自治区",
		"city": "巴彦淖尔市",
		"name": "宝日汉图起降点",
		"address": "内蒙古自治区巴彦淖尔市乌拉特后旗",
		"location": {
			"latitude": 41.327839750518,
			"longitude": 106.38127604775
		},
		"published": true,
		"type": "HELICOPTER",
		"description": ""
	},
	{
		"province": "内蒙古自治区",
		"city": "巴彦淖尔市",
		"name": "纳森图起降点",
		"address": "内蒙古自治区巴彦淖尔市磴口县",
		"location": {
			"latitude": 40.529428948324,
			"longitude": 106.6544211831
		},
		"published": true,
		"type": "HELICOPTER",
		"description": ""
	},
	{
		"province": "内蒙古自治区",
		"city": "呼伦贝尔市",
		"name": "东升石业",
		"address": "内蒙古自治区呼伦贝尔市鄂温克族自治旗红花尔基街",
		"location": {
			"latitude": 49.161686403313,
			"longitude": 119.74435001797
		},
		"published": true,
		"type": "HELICOPTER",
		"description": ""
	},
	{
		"province": "内蒙古自治区",
		"city": "呼伦贝尔市",
		"name": "伊敏河镇污水处理厂",
		"address": "内蒙古自治区呼伦贝尔市鄂温克族自治旗",
		"location": {
			"latitude": 48.61948898971,
			"longitude": 119.79927025221
		},
		"published": true,
		"type": "HELICOPTER",
		"description": ""
	},
	{
		"province": "内蒙古自治区",
		"city": "呼伦贝尔市",
		"name": "红花尔基直升机场",
		"address": "内蒙古自治区呼伦贝尔市鄂温克族自治旗",
		"location": {
			"latitude": 48.27603945846,
			"longitude": 119.99992658701
		},
		"published": true,
		"type": "HELICOPTER",
		"description": ""
	},
	{
		"province": "内蒙古自治区",
		"city": "兴安盟",
		"name": "白狼林业局洮儿河林场",
		"address": "内蒙古自治区兴安盟阿尔山市",
		"location": {
			"latitude": 47.07711906801,
			"longitude": 120.11853002317
		},
		"published": true,
		"type": "HELICOPTER",
		"description": ""
	},
	{
		"province": "内蒙古自治区",
		"city": "兴安盟",
		"name": "阿力得尔公路管理处",
		"address": "内蒙古自治区兴安盟科尔沁右翼前旗",
		"location": {
			"latitude": 46.276283002943,
			"longitude": 121.07302398344
		},
		"published": true,
		"type": "HELICOPTER",
		"description": ""
	},
	{
		"province": "内蒙古自治区",
		"city": "兴安盟",
		"name": "中天汽贸",
		"address": "内蒙古自治区兴安盟科尔沁右翼中旗扎木钦路",
		"location": {
			"latitude": 45.03429864319,
			"longitude": 121.47015233241
		},
		"published": true,
		"type": "HELICOPTER",
		"description": ""
	},
	{
		"province": "内蒙古自治区",
		"city": "通辽市",
		"name": "瑞兴粮贸公司",
		"address": "内蒙古自治区通辽市科尔沁左翼中旗X463",
		"location": {
			"latitude": 44.047125518706,
			"longitude": 122.03411453738
		},
		"published": true,
		"type": "HELICOPTER",
		"description": ""
	},
	{
		"province": "内蒙古自治区",
		"city": "通辽市",
		"name": "中兴金典售楼处",
		"address": "内蒙古自治区通辽市科尔沁左翼后旗S305(大青沟街)",
		"location": {
			"latitude": 42.952012240149,
			"longitude": 122.3563818286
		},
		"published": true,
		"type": "HELICOPTER",
		"description": ""
	},
	{
		"province": "内蒙古自治区",
		"city": "通辽市",
		"name": "跃奇太阳能有限公司",
		"address": "内蒙古自治区通辽市科尔沁左翼后旗G304(丹霍线)",
		"location": {
			"latitude": 42.958142500835,
			"longitude": 122.38765692587
		},
		"published": true,
		"type": "HELICOPTER",
		"description": ""
	},
	{
		"province": "内蒙古自治区",
		"city": "兴安盟",
		"name": "直升机起降点",
		"address": "内蒙古自治区兴安盟科尔沁右翼前旗",
		"location": {
			"latitude": 46.277463697934,
			"longitude": 121.04837930609
		},
		"published": true,
		"type": "HELICOPTER",
		"description": ""
	},
	{
		"province": "内蒙古自治区",
		"city": "兴安盟",
		"name": "鼎力起重设备厂",
		"address": "内蒙古自治区兴安盟扎赉特旗",
		"location": {
			"latitude": 46.72239576869,
			"longitude": 122.90353516783
		},
		"published": true,
		"type": "HELICOPTER",
		"description": ""
	},
	{
		"province": "内蒙古自治区",
		"city": "兴安盟",
		"name": "个人大院",
		"address": "内蒙古自治区兴安盟乌兰浩特市",
		"location": {
			"latitude": 46.05390599512,
			"longitude": 122.0249619923
		},
		"published": true,
		"type": "HELICOPTER",
		"description": ""
	},
	{
		"province": "内蒙古自治区",
		"city": "兴安盟",
		"name": "秸秆转化加工厂",
		"address": "内蒙古自治区兴安盟突泉县巴乌线",
		"location": {
			"latitude": 45.363220522781,
			"longitude": 121.55973218648
		},
		"published": true,
		"type": "HELICOPTER",
		"description": ""
	},
	{
		"province": "内蒙古自治区",
		"city": "通辽市",
		"name": "国家电网大院",
		"address": "内蒙古自治区通辽市开鲁县",
		"location": {
			"latitude": 43.582731397456,
			"longitude": 120.9270345525
		},
		"published": true,
		"type": "HELICOPTER",
		"description": ""
	},
	{
		"province": "内蒙古自治区",
		"city": "通辽市",
		"name": "远大彩钢厂",
		"address": "内蒙古自治区通辽市霍林郭勒市远大路",
		"location": {
			"latitude": 45.474263144309,
			"longitude": 119.64987535788
		},
		"published": true,
		"type": "HELICOPTER",
		"description": ""
	},
	{
		"province": "内蒙古自治区",
		"city": "锡林郭勒盟",
		"name": "宏大彩钢板厂",
		"address": "内蒙古自治区锡林郭勒盟西乌珠穆沁旗",
		"location": {
			"latitude": 44.702781115019,
			"longitude": 118.44340577812
		},
		"published": true,
		"type": "HELICOPTER",
		"description": ""
	},
	{
		"province": "内蒙古自治区",
		"city": "赤峰市",
		"name": "直升机起降点",
		"address": "内蒙古自治区赤峰市巴林右旗",
		"location": {
			"latitude": 43.566527334529,
			"longitude": 118.70320131002
		},
		"published": true,
		"type": "HELICOPTER",
		"description": ""
	},
	{
		"province": "内蒙古自治区",
		"city": "赤峰市",
		"name": "个人设备库",
		"address": "内蒙古自治区赤峰市翁牛特旗工四路",
		"location": {
			"latitude": 42.919789674771,
			"longitude": 119.05137678005
		},
		"published": true,
		"type": "HELICOPTER",
		"description": ""
	},
	{
		"province": "内蒙古自治区",
		"city": "赤峰市",
		"name": "北疆北山粮库",
		"address": "内蒙古自治区赤峰市红山区S205",
		"location": {
			"latitude": 42.350119141947,
			"longitude": 118.91092066602
		},
		"published": true,
		"type": "HELICOPTER",
		"description": ""
	},
	{
		"province": "内蒙古自治区",
		"city": "赤峰市",
		"name": "个人大院",
		"address": "内蒙古自治区赤峰市元宝山区古马路",
		"location": {
			"latitude": 42.064113925903,
			"longitude": 119.329200345
		},
		"published": true,
		"type": "HELICOPTER",
		"description": ""
	},
	{
		"province": "江西省",
		"city": "宜春市",
		"name": "江西格林美报废汽车循环利用有限公司",
		"address": "江西省宜春市丰城市丰源大道",
		"location": {
			"latitude": 28.217873537256,
			"longitude": 115.75054055617
		},
		"published": true,
		"type": "HELICOPTER",
		"description": ""
	},
	{
		"province": "江西省",
		"city": "宜春市",
		"name": "直升机起降点",
		"address": "江西省宜春市丰城市",
		"location": {
			"latitude": 28.266807797276,
			"longitude": 115.73776456179
		},
		"published": true,
		"type": "HELICOPTER",
		"description": ""
	},
	{
		"province": "江西省",
		"city": "宜春市",
		"name": "江西正宇饲料公司",
		"address": "江西省宜春市上高县G320(沪瑞线)",
		"location": {
			"latitude": 28.242430128578,
			"longitude": 114.86313334462
		},
		"published": true,
		"type": "HELICOPTER",
		"description": ""
	},
	{
		"province": "江西省",
		"city": "宜春市",
		"name": "江西嘉华林业公司",
		"address": "江西省宜春市万载县鹅峰路",
		"location": {
			"latitude": 28.125867243234,
			"longitude": 114.49290748329
		},
		"published": true,
		"type": "HELICOPTER",
		"description": ""
	},
	{
		"province": "江西省",
		"city": "抚州市",
		"name": "东乡县江西佳佳陶瓷公司",
		"address": "江西省抚州市东乡县陶园二路",
		"location": {
			"latitude": 28.19806443793,
			"longitude": 116.59176843614
		},
		"published": true,
		"type": "HELICOPTER",
		"description": ""
	},
	{
		"province": "江西省",
		"city": "上饶市",
		"name": "江西横峰县供电局停车场",
		"address": "江西省上饶市横峰县兴安大道",
		"location": {
			"latitude": 28.415459468815,
			"longitude": 117.60029777659
		},
		"published": true,
		"type": "HELICOPTER",
		"description": ""
	},
	{
		"province": "江西省",
		"city": "赣州市",
		"name": "美润环保有限公司",
		"address": "江西省赣州市瑞金市金龙大道",
		"location": {
			"latitude": 25.877058796807,
			"longitude": 115.99631722548
		},
		"published": true,
		"type": "HELICOPTER",
		"description": ""
	},
	{
		"province": "江西省",
		"city": "赣州市",
		"name": "荷立鑫仓库院",
		"address": "江西省赣州市瑞金市金龙大道",
		"location": {
			"latitude": 25.876228061654,
			"longitude": 115.99631766597
		},
		"published": true,
		"type": "HELICOPTER",
		"description": ""
	},
	{
		"province": "江西省",
		"city": "景德镇市",
		"name": "停车场",
		"address": "江西省景德镇市乐平市G206(大连路)",
		"location": {
			"latitude": 28.993018640578,
			"longitude": 117.15182997548
		},
		"published": true,
		"type": "HELICOPTER",
		"description": ""
	},
	{
		"province": "江西省",
		"city": "上饶市",
		"name": "直升机起降点",
		"address": "江西省上饶市余干县S101(南昌大道)",
		"location": {
			"latitude": 28.719070040597,
			"longitude": 116.68080664173
		},
		"published": true,
		"type": "HELICOPTER",
		"description": ""
	},
	{
		"province": "江西省",
		"city": "南昌市",
		"name": "直升机起降点",
		"address": "江西省南昌市南昌县天祥北大道",
		"location": {
			"latitude": 28.740706563432,
			"longitude": 116.0641052238
		},
		"published": true,
		"type": "HELICOPTER",
		"description": ""
	},
	{
		"province": "江西省",
		"city": "九江市",
		"name": "直升机起降点",
		"address": "江西省九江市永修县永盛路",
		"location": {
			"latitude": 28.989059238272,
			"longitude": 115.82148791985
		},
		"published": true,
		"type": "HELICOPTER",
		"description": ""
	},
	{
		"province": "江西省",
		"city": "九江市",
		"name": "直升机起降点",
		"address": "江西省九江市永修县工业大道",
		"location": {
			"latitude": 29.239806094864,
			"longitude": 115.77138907903
		},
		"published": true,
		"type": "HELICOPTER",
		"description": ""
	},
	{
		"province": "江西省",
		"city": "九江市",
		"name": "直升机起降点",
		"address": "江西省九江市武宁县",
		"location": {
			"latitude": 29.291777401604,
			"longitude": 115.13392176874
		},
		"published": true,
		"type": "HELICOPTER",
		"description": ""
	},
	{
		"province": "江西省",
		"city": "宜春市",
		"name": "直升机起降点",
		"address": "江西省宜春市高安市",
		"location": {
			"latitude": 28.422201215699,
			"longitude": 115.34225290824
		},
		"published": true,
		"type": "HELICOPTER",
		"description": ""
	},
	{
		"province": "江西省",
		"city": "新余市",
		"name": "直升机起降点",
		"address": "江西省新余市渝水区赛维大道",
		"location": {
			"latitude": 27.842866616668,
			"longitude": 115.00266836356
		},
		"published": true,
		"type": "HELICOPTER",
		"description": ""
	},
	{
		"province": "江西省",
		"city": "吉安市",
		"name": "直升机起降点",
		"address": "江西省吉安市吉安县环岛南路",
		"location": {
			"latitude": 27.025472108748,
			"longitude": 114.94823910326
		},
		"published": true,
		"type": "HELICOPTER",
		"description": ""
	},
	{
		"province": "江西省",
		"city": "吉安市",
		"name": "直升机起降点",
		"address": "江西省吉安市万安县",
		"location": {
			"latitude": 26.460159913794,
			"longitude": 114.73135268283
		},
		"published": true,
		"type": "HELICOPTER",
		"description": ""
	},
	{
		"province": "江西省",
		"city": "赣州市",
		"name": "直升机起降点",
		"address": "江西省赣州市赣县梅林大街",
		"location": {
			"latitude": 25.873596690886,
			"longitude": 115.0393508601
		},
		"published": true,
		"type": "HELICOPTER",
		"description": ""
	},
	{
		"province": "浙江省",
		"city": "金华市",
		"name": "17供电所",
		"address": "浙江省金华市武义县武丽线",
		"location": {
			"latitude": 28.882864701632,
			"longitude": 119.83314155516
		},
		"published": true,
		"type": "HELICOPTER",
		"description": ""
	},
	{
		"province": "浙江省",
		"city": "衢州市",
		"name": "华电乌溪电厂",
		"address": "浙江省衢州市柯城区X307(石呈线)",
		"location": {
			"latitude": 28.836054166639,
			"longitude": 118.90899976019
		},
		"published": true,
		"type": "HELICOPTER",
		"description": ""
	},
	{
		"province": "浙江省",
		"city": "宁波市",
		"name": "直升机起降点",
		"address": "浙江省宁波市奉化市甬临线(旧)",
		"location": {
			"latitude": 29.616354859377,
			"longitude": 121.43186551571
		},
		"published": true,
		"type": "HELICOPTER",
		"description": ""
	},
	{
		"province": "浙江省",
		"city": "绍兴市",
		"name": "直升机起降点",
		"address": "浙江省绍兴市新昌县",
		"location": {
			"latitude": 29.473664495399,
			"longitude": 120.81621105099
		},
		"published": true,
		"type": "HELICOPTER",
		"description": ""
	},
	{
		"province": "浙江省",
		"city": "丽水市",
		"name": "青田石溪村驾校",
		"address": "浙江省丽水市青田县S333",
		"location": {
			"latitude": 28.184423279613,
			"longitude": 120.2411583616
		},
		"published": true,
		"type": "HELICOPTER",
		"description": ""
	},
	{
		"province": "浙江省",
		"city": "台州市",
		"name": "仙居长安驾校",
		"address": "浙江省台州市仙居县",
		"location": {
			"latitude": 28.897518624251,
			"longitude": 120.76299222716
		},
		"published": true,
		"type": "HELICOPTER",
		"description": ""
	},
	{
		"province": "浙江省",
		"city": "杭州市",
		"name": "周浦镇周浦驾校",
		"address": "浙江省杭州市西湖区周浦线",
		"location": {
			"latitude": 30.106864308844,
			"longitude": 120.07796907263
		},
		"published": true,
		"type": "HELICOPTER",
		"description": ""
	},
	{
		"province": "浙江省",
		"city": "杭州市",
		"name": "桐庐林场",
		"address": "浙江省杭州市桐庐县大奇山路",
		"location": {
			"latitude": 29.77606783419,
			"longitude": 119.72540493805
		},
		"published": true,
		"type": "HELICOPTER",
		"description": ""
	},
	{
		"province": "浙江省",
		"city": "金华市",
		"name": "浦江工贸公司",
		"address": "浙江省金华市浦江县平七路288",
		"location": {
			"latitude": 29.469295225316,
			"longitude": 119.93641656043
		},
		"published": true,
		"type": "HELICOPTER",
		"description": ""
	},
	{
		"province": "浙江省",
		"city": "绍兴市",
		"name": "嵊州优尼特新能源公司",
		"address": "浙江省绍兴市嵊州市浦慧路",
		"location": {
			"latitude": 29.616533477863,
			"longitude": 120.87186959272
		},
		"published": true,
		"type": "HELICOPTER",
		"description": ""
	},
	{
		"province": "浙江省",
		"city": "宁波市",
		"name": "余姚舜鸿驾校",
		"address": "浙江省宁波市余姚市谭家岭东路52号",
		"location": {
			"latitude": 30.03029384125,
			"longitude": 121.17325190904
		},
		"published": true,
		"type": "HELICOPTER",
		"description": ""
	},
	{
		"province": "浙江省",
		"city": "嘉兴市",
		"name": "海宁中粮面粉厂",
		"address": "浙江省嘉兴市海宁市施带路",
		"location": {
			"latitude": 30.53553692197,
			"longitude": 120.74957188695
		},
		"published": true,
		"type": "HELICOPTER",
		"description": ""
	},
	{
		"province": "浙江省",
		"city": "湖州市",
		"name": "菱湖众悦驾校",
		"address": "浙江省湖州市吴兴区保戈公路",
		"location": {
			"latitude": 30.693308804181,
			"longitude": 120.12067106277
		},
		"published": true,
		"type": "HELICOPTER",
		"description": ""
	},
	{
		"province": "浙江省",
		"city": "湖州市",
		"name": "菱湖众悦驾校",
		"address": "浙江省湖州市吴兴区保戈公路",
		"location": {
			"latitude": 30.692245201413,
			"longitude": 120.12150593718
		},
		"published": true,
		"type": "HELICOPTER",
		"description": ""
	},
	{
		"province": "浙江省",
		"city": "湖州市",
		"name": "湖州伏牛板簧",
		"address": "浙江省湖州市南浔区菁菱公路",
		"location": {
			"latitude": 30.730712609159,
			"longitude": 120.16502783753
		},
		"published": true,
		"type": "HELICOPTER",
		"description": ""
	},
	{
		"province": "浙江省",
		"city": "嘉兴市",
		"name": "海宁",
		"address": "浙江省嘉兴市海宁市X103(海宁大道)",
		"location": {
			"latitude": 30.554915383621,
			"longitude": 120.67576384279
		},
		"published": true,
		"type": "HELICOPTER",
		"description": ""
	},
	{
		"province": "浙江省",
		"city": "宁波市",
		"name": "奉化市溪口镇政府溪口风景区",
		"address": "浙江省宁波市奉化市武岭西路",
		"location": {
			"latitude": 29.688192599336,
			"longitude": 121.29225312608
		},
		"published": true,
		"type": "HELICOPTER",
		"description": ""
	},
	{
		"province": "浙江省",
		"city": "宁波市",
		"name": "奉化市溪口镇政府溪口风景区第二停机点",
		"address": "浙江省宁波市奉化市S33",
		"location": {
			"latitude": 29.69149710403,
			"longitude": 121.26563335308
		},
		"published": true,
		"type": "HELICOPTER",
		"description": ""
	},
	{
		"province": "云南省",
		"city": "昭通市",
		"name": "水富西部大峡谷 西南大峡谷停机坪",
		"address": "云南省昭通市水富县迎宾隧道",
		"location": {
			"latitude": 28.641942969788,
			"longitude": 104.37484702915
		},
		"published": true,
		"type": "HELICOPTER",
		"description": ""
	},
	{
		"province": "云南省",
		"city": "昭通市",
		"name": "水富县教育培训中心",
		"address": "云南省昭通市水富县",
		"location": {
			"latitude": 28.648666840637,
			"longitude": 104.37762145355
		},
		"published": true,
		"type": "HELICOPTER",
		"description": ""
	},
	{
		"province": "云南省",
		"city": "丽江市",
		"name": "雷特酒厂",
		"address": "云南省丽江市永胜县S220",
		"location": {
			"latitude": 26.664726771803,
			"longitude": 100.76116945978
		},
		"published": true,
		"type": "HELICOPTER",
		"description": ""
	},
	{
		"province": "云南省",
		"city": "邵阳市",
		"name": "消防大队",
		"address": "湖南省邵阳市武冈市",
		"location": {
			"latitude": 26.672316443964,
			"longitude": 110.76131899577
		},
		"published": true,
		"type": "HELICOPTER",
		"description": ""
	},
	{
		"province": "云南省",
		"city": "楚雄彝族自治州",
		"name": "公路管理段",
		"address": "云南省楚雄彝族自治州永仁县S217",
		"location": {
			"latitude": 26.050475354677,
			"longitude": 101.66960622585
		},
		"published": true,
		"type": "HELICOPTER",
		"description": ""
	},
	{
		"province": "云南省",
		"city": "楚雄彝族自治州",
		"name": "东南客运站",
		"address": "云南省楚雄彝族自治州大姚县百草岭大街",
		"location": {
			"latitude": 25.719160216669,
			"longitude": 101.33433480364
		},
		"published": true,
		"type": "HELICOPTER",
		"description": ""
	},
	{
		"province": "云南省",
		"city": "楚雄彝族自治州",
		"name": "北厂村四组",
		"address": "云南省楚雄彝族自治州禄丰县",
		"location": {
			"latitude": 25.170791803471,
			"longitude": 102.08179024962
		},
		"published": true,
		"type": "HELICOPTER",
		"description": ""
	},
	{
		"province": "云南省",
		"city": "楚雄彝族自治州",
		"name": "德雄化工厂（后大门）",
		"address": "云南省楚雄彝族自治州禄丰县龙城路",
		"location": {
			"latitude": 25.145696189966,
			"longitude": 102.06987074209
		},
		"published": true,
		"type": "HELICOPTER",
		"description": ""
	},
	{
		"province": "云南省",
		"city": "昭通市",
		"name": "私人工厂",
		"address": "云南省昭通市昭阳区昭烟线",
		"location": {
			"latitude": 27.318721918775,
			"longitude": 103.73449914791
		},
		"published": true,
		"type": "HELICOPTER",
		"description": ""
	},
	{
		"province": "云南省",
		"city": "昭通市",
		"name": "矿山救护队",
		"address": "云南省昭通市镇雄县环城北路",
		"location": {
			"latitude": 27.452201321048,
			"longitude": 104.88284278225
		},
		"published": true,
		"type": "HELICOPTER",
		"description": ""
	},
	{
		"province": "云南省",
		"city": "曲靖市",
		"name": "招兵站",
		"address": "云南省曲靖市宣威市环城东路",
		"location": {
			"latitude": 26.213183413823,
			"longitude": 104.12557459
		},
		"published": true,
		"type": "HELICOPTER",
		"description": ""
	},
	{
		"province": "云南省",
		"city": "曲靖市",
		"name": "第二小学",
		"address": "云南省曲靖市宣威市环城北路",
		"location": {
			"latitude": 26.247519626202,
			"longitude": 104.09472792625
		},
		"published": true,
		"type": "HELICOPTER",
		"description": ""
	},
	{
		"province": "云南省",
		"city": "玉溪市",
		"name": "直升机起降点",
		"address": "云南省玉溪市澄江县",
		"location": {
			"latitude": 24.636732850472,
			"longitude": 102.89795090872
		},
		"published": true,
		"type": "HELICOPTER",
		"description": ""
	},
	{
		"province": "云南省",
		"city": "文山壮族苗族自治州",
		"name": "砚山",
		"address": "云南省文山壮族苗族自治州砚山县",
		"location": {
			"latitude": 23.659840932576,
			"longitude": 104.35413830136
		},
		"published": true,
		"type": "HELICOPTER",
		"description": ""
	},
	{
		"province": "云南省",
		"city": "红河哈尼族彝族自治州",
		"name": "开远市",
		"address": "云南省红河哈尼族彝族自治州开远市市西南路",
		"location": {
			"latitude": 23.689737326531,
			"longitude": 103.2541842424
		},
		"published": true,
		"type": "HELICOPTER",
		"description": ""
	},
	{
		"province": "云南省",
		"city": "红河哈尼族彝族自治州",
		"name": "个旧市",
		"address": "云南省红河哈尼族彝族自治州个旧市S212",
		"location": {
			"latitude": 23.520482923874,
			"longitude": 103.24134018208
		},
		"published": true,
		"type": "HELICOPTER",
		"description": ""
	},
	{
		"province": "云南省",
		"city": "红河哈尼族彝族自治州",
		"name": "建水县",
		"address": "云南省红河哈尼族彝族自治州建水县",
		"location": {
			"latitude": 23.646835955588,
			"longitude": 102.83865576821
		},
		"published": true,
		"type": "HELICOPTER",
		"description": ""
	},
	{
		"province": "云南省",
		"city": "红河哈尼族彝族自治州",
		"name": "建水县",
		"address": "云南省红河哈尼族彝族自治州建水县",
		"location": {
			"latitude": 23.661016493439,
			"longitude": 102.84725945415
		},
		"published": true,
		"type": "HELICOPTER",
		"description": ""
	},
	{
		"province": "云南省",
		"city": "红河哈尼族彝族自治州",
		"name": "红河县",
		"address": "云南省红河哈尼族彝族自治州红河县",
		"location": {
			"latitude": 23.357077956258,
			"longitude": 102.43309286873
		},
		"published": true,
		"type": "HELICOPTER",
		"description": ""
	},
	{
		"province": "云南省",
		"city": "玉溪市",
		"name": "元江县",
		"address": "云南省玉溪市元江G213(兰磨线)",
		"location": {
			"latitude": 23.650343327055,
			"longitude": 101.98590258967
		},
		"published": true,
		"type": "HELICOPTER",
		"description": ""
	},
	{
		"province": "云南省",
		"city": "玉溪市",
		"name": "江川县",
		"address": "云南省玉溪市江川县",
		"location": {
			"latitude": 24.320573108722,
			"longitude": 102.72145641807
		},
		"published": true,
		"type": "HELICOPTER",
		"description": ""
	},
	{
		"province": "云南省",
		"city": "普洱市",
		"name": "墨江县",
		"address": "云南省普洱市墨江哈尼族自治县G8511(昆磨高速)",
		"location": {
			"latitude": 23.300335617872,
			"longitude": 101.39009127559
		},
		"published": true,
		"type": "HELICOPTER",
		"description": ""
	},
	{
		"province": "云南省",
		"city": "普洱市",
		"name": "江城县",
		"address": "云南省普洱市江城哈尼族彝族自治县",
		"location": {
			"latitude": 22.568736855518,
			"longitude": 101.88325810385
		},
		"published": true,
		"type": "HELICOPTER",
		"description": ""
	},
	{
		"province": "云南省",
		"city": "普洱市",
		"name": "普洱市",
		"address": "云南省普洱市思茅区",
		"location": {
			"latitude": 22.785942832528,
			"longitude": 100.91608664907
		},
		"published": true,
		"type": "HELICOPTER",
		"description": ""
	},
	{
		"province": "云南省",
		"city": "西双版纳傣族自治州",
		"name": "西双版纳",
		"address": "云南省西双版纳傣族自治州景洪市",
		"location": {
			"latitude": 22.021795390923,
			"longitude": 100.75492617013
		},
		"published": true,
		"type": "HELICOPTER",
		"description": ""
	},
	{
		"province": "四川省",
		"city": "湘西土家族苗族自治州",
		"name": "叙永县体育中心运动场",
		"address": "湖南省湘西土家族苗族自治州凤凰县吉凤路",
		"location": {
			"latitude": 28.214231676699,
			"longitude": 109.66946540251
		},
		"published": true,
		"type": "HELICOPTER",
		"description": ""
	},
	{
		"province": "四川省",
		"city": "泸州市",
		"name": "体育中心大院",
		"address": "四川省泸州市叙永县丹山路",
		"location": {
			"latitude": 28.180301231511,
			"longitude": 105.44426648381
		},
		"published": true,
		"type": "HELICOPTER",
		"description": ""
	},
	{
		"province": "四川省",
		"city": "攀枝花市",
		"name": "米易县职业技术学校",
		"address": "四川省攀枝花市米易县铁建路",
		"location": {
			"latitude": 26.870991810783,
			"longitude": 102.1200511675
		},
		"published": true,
		"type": "HELICOPTER",
		"description": ""
	},
	{
		"province": "四川省",
		"city": "凉山彝族自治州",
		"name": "德昌县金峰橡胶有限公司",
		"address": "四川省凉山彝族自治州德昌县",
		"location": {
			"latitude": 27.520765910404,
			"longitude": 102.20064096648
		},
		"published": true,
		"type": "HELICOPTER",
		"description": ""
	},
	{
		"province": "四川省",
		"city": "凉山彝族自治州",
		"name": "西昌新钢业有限公司",
		"address": "四川省凉山彝族自治州西昌市S107(机场路一段)",
		"location": {
			"latitude": 27.909364450325,
			"longitude": 102.22409951726
		},
		"published": true,
		"type": "HELICOPTER",
		"description": ""
	},
	{
		"province": "四川省",
		"city": "凉山彝族自治州",
		"name": "冕宁县复兴镇中心村",
		"address": "四川省凉山彝族自治州冕宁县G108(京昆线)",
		"location": {
			"latitude": 28.430666358817,
			"longitude": 102.18153395741
		},
		"published": true,
		"type": "HELICOPTER",
		"description": ""
	},
	{
		"province": "四川省",
		"city": "自贡市",
		"name": "沿滩区卫平镇综合管理办公室",
		"address": "四川省自贡市大安区G85(渝昆高速)",
		"location": {
			"latitude": 29.357231840343,
			"longitude": 104.82425440797
		},
		"published": true,
		"type": "HELICOPTER",
		"description": ""
	},
	{
		"province": "四川省",
		"city": "凉山彝族自治州",
		"name": "昭觉县金鑫水泥有限责任公司",
		"address": "四川省凉山彝族自治州昭觉县",
		"location": {
			"latitude": 28.066588172422,
			"longitude": 102.93965103499
		},
		"published": true,
		"type": "HELICOPTER",
		"description": ""
	},
	{
		"province": "四川省",
		"city": "乐山市",
		"name": "沐川县吉泰龙食品有限公司",
		"address": "四川省乐山市沐川县城北路518",
		"location": {
			"latitude": 28.9746074985,
			"longitude": 103.91345165696
		},
		"published": true,
		"type": "HELICOPTER",
		"description": ""
	},
	{
		"province": "四川省",
		"city": "乐山市",
		"name": "马边彝族自治县",
		"address": "四川省乐山市马边彝族自治县S103",
		"location": {
			"latitude": 28.829938664774,
			"longitude": 103.53907856666
		},
		"published": true,
		"type": "HELICOPTER",
		"description": ""
	},
	{
		"province": "四川省",
		"city": "乐山市",
		"name": "金口河",
		"address": "四川省乐山市金口河区S306",
		"location": {
			"latitude": 29.247422514822,
			"longitude": 103.07982171864
		},
		"published": true,
		"type": "HELICOPTER",
		"description": ""
	},
	{
		"province": "四川省",
		"city": "凉山彝族自治州",
		"name": "巴浦镇阳光农家院",
		"address": "四川省凉山彝族自治州美姑县",
		"location": {
			"latitude": 28.338778116036,
			"longitude": 103.15056780359
		},
		"published": true,
		"type": "HELICOPTER",
		"description": ""
	},
	{
		"province": "四川省",
		"city": "乐山市",
		"name": "沐川县开源木业",
		"address": "四川省乐山市沐川县",
		"location": {
			"latitude": 28.968400544337,
			"longitude": 103.88802090105
		},
		"published": true,
		"type": "HELICOPTER",
		"description": ""
	},
	{
		"province": "四川省",
		"city": "乐山市",
		"name": "峨边羊竹",
		"address": "四川省乐山市峨边彝族自治县铜河路",
		"location": {
			"latitude": 29.251975594859,
			"longitude": 103.27576784478
		},
		"published": true,
		"type": "HELICOPTER",
		"description": ""
	},
	{
		"province": "贵州省",
		"city": "怀化市",
		"name": "桐梓县楚米镇工业园",
		"address": "湖南省怀化市沅陵县G319(厦成线)",
		"location": {
			"latitude": 28.426082020349,
			"longitude": 110.45013445456
		},
		"published": true,
		"type": "HELICOPTER",
		"description": ""
	},
	{
		"province": "贵州省",
		"city": "遵义市",
		"name": "楚米镇汽车客运站",
		"address": "贵州省遵义市桐梓县G75(兰海高速)",
		"location": {
			"latitude": 28.228001481671,
			"longitude": 106.8483179106
		},
		"published": true,
		"type": "HELICOPTER",
		"description": ""
	},
	{
		"province": "贵州省",
		"city": "铜仁市",
		"name": "松桃苗族县苗王城景区管委会",
		"address": "贵州省铜仁市松桃苗族自治县Y034",
		"location": {
			"latitude": 27.962133781025,
			"longitude": 109.25306703757
		},
		"published": true,
		"type": "HELICOPTER",
		"description": ""
	},
	{
		"province": "贵州省",
		"city": "铜仁市",
		"name": "印江小云工业园",
		"address": "贵州省铜仁市印江土家族苗族自治县X542",
		"location": {
			"latitude": 27.981749000198,
			"longitude": 108.39456476195
		},
		"published": true,
		"type": "HELICOPTER",
		"description": ""
	},
	{
		"province": "贵州省",
		"city": "毕节市",
		"name": "时骏房地产开发有限公司园第一起降点",
		"address": "贵州省毕节市七星关区G76(厦蓉高速)",
		"location": {
			"latitude": 27.268299711323,
			"longitude": 105.38375345917
		},
		"published": true,
		"type": "HELICOPTER",
		"description": ""
	},
	{
		"province": "贵州省",
		"city": "毕节市",
		"name": "时骏房地产开发有限公司园第二起降点",
		"address": "贵州省毕节市七星关区G76(厦蓉高速)",
		"location": {
			"latitude": 27.268968232793,
			"longitude": 105.381392397
		},
		"published": true,
		"type": "HELICOPTER",
		"description": ""
	},
	{
		"province": "贵州省",
		"city": "毕节市",
		"name": "赫章县人民武装部院内",
		"address": "贵州省毕节市赫章县小河西一路",
		"location": {
			"latitude": 27.117666891306,
			"longitude": 104.72840942345
		},
		"published": true,
		"type": "HELICOPTER",
		"description": ""
	},
	{
		"province": "贵州省",
		"city": "毕节市",
		"name": "威宁县威宣路181号私人后院内（三一挖掘机服务中心后院）",
		"address": "贵州省毕节市威宁彝族回族苗族自治县G326(秀河线)",
		"location": {
			"latitude": 26.837773023217,
			"longitude": 104.31087918325
		},
		"published": true,
		"type": "HELICOPTER",
		"description": ""
	},
	{
		"province": "贵州省",
		"city": "六盘水市",
		"name": "六盘水市水城县钟山大道天盛汽车销售服务有限公司后院内",
		"address": "贵州省六盘水市水城县",
		"location": {
			"latitude": 26.549097694916,
			"longitude": 104.9563045732
		},
		"published": true,
		"type": "HELICOPTER",
		"description": ""
	},
	{
		"province": "贵州省",
		"city": "六盘水市",
		"name": "六盘水市盘县城关镇刘官高速公路收费站旁的黔运汽车贸易有限公司院内",
		"address": "贵州省六盘水市盘县G320(沪瑞线)",
		"location": {
			"latitude": 25.822129579841,
			"longitude": 104.67894185473
		},
		"published": true,
		"type": "HELICOPTER",
		"description": ""
	},
	{
		"province": "贵州省",
		"city": "六盘水市",
		"name": "贵州省黔运汽车贸易有限公司（刘官高速公路收费站旁）",
		"address": "贵州省六盘水市盘县G320(沪瑞线)",
		"location": {
			"latitude": 25.822123518052,
			"longitude": 104.67894757024
		},
		"published": true,
		"type": "HELICOPTER",
		"description": ""
	},
	{
		"province": "贵州省",
		"city": "黔西南布依族苗族自治州",
		"name": "晴隆古城景区前坪",
		"address": "贵州省黔西南布依族苗族自治州晴隆县晴隆大道",
		"location": {
			"latitude": 25.823861440086,
			"longitude": 105.22614865277
		},
		"published": true,
		"type": "HELICOPTER",
		"description": ""
	},
	{
		"province": "贵州省",
		"city": "黔西南布依族苗族自治州",
		"name": "陆关工业园区凤铃马大姐食品公司",
		"address": "贵州省黔西南布依族苗族自治州兴仁县关兴高等级公路",
		"location": {
			"latitude": 25.457232730319,
			"longitude": 105.24111729032
		},
		"published": true,
		"type": "HELICOPTER",
		"description": ""
	},
	{
		"province": "贵州省",
		"city": "黔东南苗族侗族自治州",
		"name": "黎平景区",
		"address": "贵州省黔东南苗族侗族自治州从江县",
		"location": {
			"latitude": 25.90604027809,
			"longitude": 109.14637847417
		},
		"published": true,
		"type": "HELICOPTER",
		"description": ""
	},
	{
		"province": "江苏省",
		"city": "淮安市",
		"name": "直升机起降点",
		"address": "江苏省淮安市盱眙县",
		"location": {
			"latitude": 32.964184699337,
			"longitude": 118.5237723127
		},
		"published": true,
		"type": "HELICOPTER",
		"description": ""
	},
	{
		"province": "江苏省",
		"city": "连云港市",
		"name": "灌云县东王集乡",
		"address": "江苏省连云港市灌云县G204(烟沪线)",
		"location": {
			"latitude": 34.284037209847,
			"longitude": 119.35885629258
		},
		"published": true,
		"type": "HELICOPTER",
		"description": ""
	},
	{
		"province": "江苏省",
		"city": "连云港市",
		"name": "灌云县图河乡官场村",
		"address": "江苏省连云港市灌云县S324",
		"location": {
			"latitude": 34.369842065456,
			"longitude": 119.58347702303
		},
		"published": true,
		"type": "HELICOPTER",
		"description": ""
	},
	{
		"province": "江苏省",
		"city": "连云港市",
		"name": "灌云县同兴镇圩伊乡",
		"address": "江苏省连云港市灌云县公路街97",
		"location": {
			"latitude": 34.441603635766,
			"longitude": 119.33215815484
		},
		"published": true,
		"type": "HELICOPTER",
		"description": ""
	},
	{
		"province": "江苏省",
		"city": "连云港市",
		"name": "灌云县陡沟二中附近",
		"address": "江苏省连云港市灌云县",
		"location": {
			"latitude": 34.29347710055,
			"longitude": 119.17867921106
		},
		"published": true,
		"type": "HELICOPTER",
		"description": ""
	},
	{
		"province": "江苏省",
		"city": "连云港市",
		"name": "灌云县下车镇仲集村",
		"address": "江苏省连云港市灌云县",
		"location": {
			"latitude": 34.40849998505,
			"longitude": 119.28188413887
		},
		"published": true,
		"type": "HELICOPTER",
		"description": ""
	},
	{
		"province": "江苏省",
		"city": "徐州市",
		"name": "沛县开发区汉铝铝材有限公司",
		"address": "江苏省徐州市沛县汉兴路",
		"location": {
			"latitude": 34.78740613157,
			"longitude": 116.91600956266
		},
		"published": true,
		"type": "HELICOPTER",
		"description": ""
	},
	{
		"province": "安徽省",
		"city": "滁州市",
		"name": "直升机起降点",
		"address": "安徽省滁州市琅琊区三里亭路209号",
		"location": {
			"latitude": 32.307324632576,
			"longitude": 118.31487394117
		},
		"published": true,
		"type": "HELICOPTER",
		"description": ""
	},
	{
		"province": "辽宁省",
		"city": "大连市",
		"name": "金石滩景区内金蟾广场",
		"address": "辽宁省大连市金州区金石路",
		"location": {
			"latitude": 39.087153685912,
			"longitude": 121.99707056618
		},
		"published": true,
		"type": "HELICOPTER",
		"description": ""
	},
	{
		"province": "辽宁省",
		"city": "大连市",
		"name": "地质公园",
		"address": "辽宁省大连市金州区",
		"location": {
			"latitude": 39.078880386445,
			"longitude": 122.0652216705
		},
		"published": true,
		"type": "HELICOPTER",
		"description": ""
	},
	{
		"province": "辽宁省",
		"city": "丹东市",
		"name": "宽甸",
		"address": "辽宁省丹东市宽甸满族自治县鸭绿江路",
		"location": {
			"latitude": 40.710215082098,
			"longitude": 124.80405471555
		},
		"published": true,
		"type": "HELICOPTER",
		"description": ""
	},
	{
		"province": "辽宁省",
		"city": "本溪市",
		"name": "本溪",
		"address": "辽宁省本溪市本溪满族自治县长江路",
		"location": {
			"latitude": 41.327440155552,
			"longitude": 124.11842655766
		},
		"published": true,
		"type": "HELICOPTER",
		"description": ""
	},
	{
		"province": "辽宁省",
		"city": "沈阳市",
		"name": "黄旗堡",
		"address": "辽宁省沈阳市辽中县S304",
		"location": {
			"latitude": 41.582040106511,
			"longitude": 122.84246769146
		},
		"published": true,
		"type": "HELICOPTER",
		"description": ""
	},
	{
		"province": "辽宁省",
		"city": "沈阳市",
		"name": "八一镇",
		"address": "辽宁省沈阳市苏家屯区八一路",
		"location": {
			"latitude": 41.621253998743,
			"longitude": 123.29827255429
		},
		"published": true,
		"type": "HELICOPTER",
		"description": ""
	},
	{
		"province": "辽宁省",
		"city": "沈阳市",
		"name": "辽中",
		"address": "辽宁省沈阳市辽中县",
		"location": {
			"latitude": 41.673981529866,
			"longitude": 122.8859738971
		},
		"published": true,
		"type": "HELICOPTER",
		"description": ""
	},
	{
		"province": "辽宁省",
		"city": "盘锦市",
		"name": "红海滩景区",
		"address": "辽宁省盘锦市大洼县滨海大道",
		"location": {
			"latitude": 40.904309162651,
			"longitude": 121.8506477065
		},
		"published": true,
		"type": "HELICOPTER",
		"description": ""
	},
	{
		"province": "辽宁省",
		"city": "盘锦市",
		"name": "红海滩景区南部",
		"address": "辽宁省盘锦市大洼县混江沟大桥",
		"location": {
			"latitude": 40.808311749546,
			"longitude": 121.95855612689
		},
		"published": true,
		"type": "HELICOPTER",
		"description": ""
	},
	{
		"province": "辽宁省",
		"city": "盘锦市",
		"name": "市政府附近体育馆",
		"address": "辽宁省盘锦市大洼县水城一街",
		"location": {
			"latitude": 40.68986165417,
			"longitude": 122.13058811678
		},
		"published": true,
		"type": "HELICOPTER",
		"description": ""
	},
	{
		"province": "辽宁省",
		"city": "盘锦市",
		"name": "兴隆区政府附近体育场",
		"address": "辽宁省盘锦市兴隆台区军民街",
		"location": {
			"latitude": 41.119091019305,
			"longitude": 122.08202043818
		},
		"published": true,
		"type": "HELICOPTER",
		"description": ""
	},
	{
		"province": "辽宁省",
		"city": "盘锦市",
		"name": "大洼县政府前坪",
		"address": "辽宁省盘锦市大洼县珠江街",
		"location": {
			"latitude": 41.007211867078,
			"longitude": 122.08955562962
		},
		"published": true,
		"type": "HELICOPTER",
		"description": ""
	},
	{
		"province": "辽宁省",
		"city": "盘锦市",
		"name": "辽河口景区",
		"address": "辽宁省盘锦市盘山县",
		"location": {
			"latitude": 40.976442493355,
			"longitude": 121.79868315036
		},
		"published": true,
		"type": "HELICOPTER",
		"description": ""
	},
	{
		"province": "辽宁省",
		"city": "鞍山市",
		"name": "感王镇",
		"address": "辽宁省鞍山市海城市",
		"location": {
			"latitude": 40.802594852869,
			"longitude": 122.56769265319
		},
		"published": true,
		"type": "HELICOPTER",
		"description": ""
	},
	{
		"province": "辽宁省",
		"city": "鞍山市",
		"name": "腾鳌补药点",
		"address": "辽宁省鞍山市海城市",
		"location": {
			"latitude": 41.091436801181,
			"longitude": 122.69487911641
		},
		"published": true,
		"type": "HELICOPTER",
		"description": ""
	},
	{
		"province": "辽宁省",
		"city": "吉林市",
		"name": "望花区五老街盘南路8号通达驾校",
		"address": "吉林省吉林市桦甸市",
		"location": {
			"latitude": 43.0015538245,
			"longitude": 126.78027763283
		},
		"published": true,
		"type": "HELICOPTER",
		"description": ""
	},
	{
		"province": "辽宁省",
		"city": "抚顺市",
		"name": "望花区五老街盘南路8号通达驾校",
		"address": "辽宁省抚顺市望花区盘南路",
		"location": {
			"latitude": 41.823656196953,
			"longitude": 123.88456351311
		},
		"published": true,
		"type": "HELICOPTER",
		"description": ""
	},
	{
		"province": "辽宁省",
		"city": "锦州市",
		"name": "黑山县健康米业",
		"address": "辽宁省锦州市黑山县",
		"location": {
			"latitude": 41.653939951455,
			"longitude": 122.14357307127
		},
		"published": true,
		"type": "HELICOPTER",
		"description": ""
	},
	{
		"province": "辽宁省",
		"city": "大连市",
		"name": "金石滩",
		"address": "辽宁省大连市金州区光谷路",
		"location": {
			"latitude": 39.089655544258,
			"longitude": 121.9591823193
		},
		"published": true,
		"type": "HELICOPTER",
		"description": ""
	},
	{
		"province": "辽宁省",
		"city": "葫芦岛市",
		"name": "前所镇国家电网大院",
		"address": "辽宁省葫芦岛市绥中县绥电线",
		"location": {
			"latitude": 40.095312026055,
			"longitude": 119.96492217551
		},
		"published": true,
		"type": "HELICOPTER",
		"description": ""
	},
	{
		"province": "辽宁省",
		"city": "葫芦岛市",
		"name": "个人粮库",
		"address": "辽宁省葫芦岛市绥中县G102(京哈线)",
		"location": {
			"latitude": 40.134811469785,
			"longitude": 119.99706122454
		},
		"published": true,
		"type": "HELICOPTER",
		"description": ""
	},
	{
		"province": "辽宁省",
		"city": "朝阳市",
		"name": "朝阳重型机器制造有限公司",
		"address": "辽宁省朝阳市双塔区",
		"location": {
			"latitude": 41.6437955531,
			"longitude": 120.5130701146
		},
		"published": true,
		"type": "HELICOPTER",
		"description": ""
	},
	{
		"province": "辽宁省",
		"city": "锦州市",
		"name": "长鹏重型机器厂",
		"address": "辽宁省锦州市北镇市G102(京哈线)",
		"location": {
			"latitude": 41.411141643376,
			"longitude": 121.79127357803
		},
		"published": true,
		"type": "HELICOPTER",
		"description": ""
	},
	{
		"province": "辽宁省",
		"city": "葫芦岛市",
		"name": "凤城开发区丹东生大食品有限公司",
		"address": "辽宁省葫芦岛市绥中县",
		"location": {
			"latitude": 40.416800061746,
			"longitude": 120.02328214405
		},
		"published": true,
		"type": "HELICOPTER",
		"description": ""
	},
	{
		"province": "辽宁省",
		"city": "本溪市",
		"name": "环境卫生管理处",
		"address": "辽宁省本溪市本溪满族自治县长江路",
		"location": {
			"latitude": 41.327717148902,
			"longitude": 124.11870378383
		},
		"published": true,
		"type": "HELICOPTER",
		"description": ""
	},
	{
		"province": "辽宁省",
		"city": "沈阳市",
		"name": "候三家社区管委会",
		"address": "辽宁省沈阳市沈北新区旁新线",
		"location": {
			"latitude": 42.078057537492,
			"longitude": 123.54968115753
		},
		"published": true,
		"type": "HELICOPTER",
		"description": ""
	},
	{
		"province": "辽宁省",
		"city": "铁岭市",
		"name": "调兵山北工业区搅拌站",
		"address": "辽宁省铁岭市调兵山市创业路",
		"location": {
			"latitude": 42.502111306345,
			"longitude": 123.58423564902
		},
		"published": true,
		"type": "HELICOPTER",
		"description": ""
	},
	{
		"province": "辽宁省",
		"city": "四平市",
		"name": "四平宝宇粮食贸易有限公司",
		"address": "吉林省四平市梨树县四桑线",
		"location": {
			"latitude": 43.279225661022,
			"longitude": 124.3683549233
		},
		"published": true,
		"type": "HELICOPTER",
		"description": ""
	},
	{
		"province": "黑龙江省",
		"city": "哈尔滨市",
		"name": "方正",
		"address": "黑龙江省哈尔滨市方正县",
		"location": {
			"latitude": 45.829772537534,
			"longitude": 128.81141882571
		},
		"published": true,
		"type": "HELICOPTER",
		"description": ""
	},
	{
		"province": "黑龙江省",
		"city": "大兴安岭地区",
		"name": "新林镇",
		"address": "黑龙江省大兴安岭地区呼玛县",
		"location": {
			"latitude": 51.676200922008,
			"longitude": 124.40885190268
		},
		"published": true,
		"type": "HELICOPTER",
		"description": ""
	},
	{
		"province": "黑龙江省",
		"city": "大兴安岭地区",
		"name": "新林镇",
		"address": "黑龙江省大兴安岭地区呼玛县S207(加漠公路)",
		"location": {
			"latitude": 51.684612795594,
			"longitude": 124.41325630611
		},
		"published": true,
		"type": "HELICOPTER",
		"description": ""
	},
	{
		"province": "黑龙江省",
		"city": "黑河市",
		"name": "孙吴县",
		"address": "黑龙江省黑河市孙吴县Y002",
		"location": {
			"latitude": 49.429233371628,
			"longitude": 127.31529963345
		},
		"published": true,
		"type": "HELICOPTER",
		"description": ""
	},
	{
		"province": "黑龙江省",
		"city": "黑河市",
		"name": "中达汽修",
		"address": "黑龙江省黑河市北安市乌裕尔大街",
		"location": {
			"latitude": 48.245892072274,
			"longitude": 126.50344002064
		},
		"published": true,
		"type": "HELICOPTER",
		"description": ""
	},
	{
		"province": "黑龙江省",
		"city": "绥化市",
		"name": "百成机械制造有限公司",
		"address": "黑龙江省绥化市北林区G222(兴绥路)",
		"location": {
			"latitude": 46.601719009017,
			"longitude": 126.99175388553
		},
		"published": true,
		"type": "HELICOPTER",
		"description": ""
	},
	{
		"province": "黑龙江省",
		"city": "牡丹江市",
		"name": "林口镇红升村村委会",
		"address": "黑龙江省牡丹江市林口县G201(鹤大线)",
		"location": {
			"latitude": 45.27344111042,
			"longitude": 130.23874168987
		},
		"published": true,
		"type": "HELICOPTER",
		"description": ""
	},
	{
		"province": "黑龙江省",
		"city": "牡丹江市",
		"name": "鑫鹏肉业",
		"address": "黑龙江省牡丹江市宁安市",
		"location": {
			"latitude": 44.366969883863,
			"longitude": 129.4608621907
		},
		"published": true,
		"type": "HELICOPTER",
		"description": ""
	},
	{
		"province": "黑龙江省",
		"city": "齐齐哈尔市",
		"name": "齐山种业",
		"address": "黑龙江省齐齐哈尔市碾子山区S302",
		"location": {
			"latitude": 47.507928329907,
			"longitude": 122.92211195653
		},
		"published": true,
		"type": "HELICOPTER",
		"description": ""
	},
	{
		"province": "黑龙江省",
		"city": "绥化市",
		"name": "南门停车场",
		"address": "黑龙江省绥化市海伦市",
		"location": {
			"latitude": 47.455240322279,
			"longitude": 126.97504008978
		},
		"published": true,
		"type": "HELICOPTER",
		"description": ""
	},
	{
		"province": "黑龙江省",
		"city": "伊春市",
		"name": "九河泉肥业",
		"address": "黑龙江省伊春市铁力市",
		"location": {
			"latitude": 46.986056017707,
			"longitude": 128.02074660933
		},
		"published": true,
		"type": "HELICOPTER",
		"description": ""
	},
	{
		"province": "黑龙江省",
		"city": "佳木斯市",
		"name": "永丰粮食贸易有限公司",
		"address": "黑龙江省佳木斯市汤原县",
		"location": {
			"latitude": 46.753285006511,
			"longitude": 129.93979045437
		},
		"published": true,
		"type": "HELICOPTER",
		"description": ""
	},
	{
		"province": "黑龙江省",
		"city": "齐齐哈尔市",
		"name": "碾子山区",
		"address": "黑龙江省齐齐哈尔市碾子山区",
		"location": {
			"latitude": 47.50250229649,
			"longitude": 122.91510639633
		},
		"published": true,
		"type": "HELICOPTER",
		"description": ""
	},
	{
		"province": "黑龙江省",
		"city": "黑河市",
		"name": "北安市",
		"address": "黑龙江省黑河市北安市玉山街",
		"location": {
			"latitude": 48.240539385999,
			"longitude": 126.49056814378
		},
		"published": true,
		"type": "HELICOPTER",
		"description": ""
	},
	{
		"province": "宁夏回族自治区",
		"city": "固原市",
		"name": "直升机起降点",
		"address": "宁夏回族自治区固原市泾源县东平路",
		"location": {
			"latitude": 35.498583091824,
			"longitude": 106.35106281899
		},
		"published": true,
		"type": "HELICOPTER",
		"description": ""
	},
	{
		"province": "宁夏回族自治区",
		"city": "吴忠市",
		"name": "吴忠金属物流园",
		"address": "宁夏回族自治区吴忠市利通区",
		"location": {
			"latitude": 37.972351992199,
			"longitude": 106.21914623828
		},
		"published": true,
		"type": "HELICOPTER",
		"description": ""
	},
	{
		"province": "宁夏回族自治区",
		"city": "吴忠市",
		"name": "宁夏盐池美雅滩羊裘皮有限公司",
		"address": "宁夏回族自治区吴忠市盐池县广惠东街",
		"location": {
			"latitude": 37.774187386149,
			"longitude": 107.42226554209
		},
		"published": true,
		"type": "HELICOPTER",
		"description": ""
	},
	{
		"province": "宁夏回族自治区",
		"city": "银川市",
		"name": "宁夏昂立光伏科技有限公司（灵武）新",
		"address": "宁夏回族自治区银川市灵武市中银大道",
		"location": {
			"latitude": 38.08098589558,
			"longitude": 106.3506966415
		},
		"published": true,
		"type": "HELICOPTER",
		"description": ""
	},
	{
		"province": "宁夏回族自治区",
		"city": "吴忠市",
		"name": "美雅滩羊裘皮有限公司",
		"address": "宁夏回族自治区吴忠市盐池县广惠东街",
		"location": {
			"latitude": 37.773913719646,
			"longitude": 107.42170870763
		},
		"published": true,
		"type": "HELICOPTER",
		"description": ""
	},
	{
		"province": "宁夏回族自治区",
		"city": "银川市",
		"name": "水管制造厂",
		"address": "宁夏回族自治区银川市灵武市灵吴路",
		"location": {
			"latitude": 38.085442003022,
			"longitude": 106.33955501782
		},
		"published": true,
		"type": "HELICOPTER",
		"description": ""
	},
	{
		"province": "吉林省",
		"city": "延边朝鲜族自治州",
		"name": "二道白河镇白河护林站",
		"address": "吉林省延边朝鲜族自治州安图县",
		"location": {
			"latitude": 42.408475152762,
			"longitude": 128.11619270024
		},
		"published": true,
		"type": "HELICOPTER",
		"description": ""
	},
	{
		"province": "吉林省",
		"city": "延边朝鲜族自治州",
		"name": "长白山北门",
		"address": "吉林省延边朝鲜族自治州安图县图和线",
		"location": {
			"latitude": 42.191280469161,
			"longitude": 128.19308496048
		},
		"published": true,
		"type": "HELICOPTER",
		"description": ""
	},
	{
		"province": "吉林省",
		"city": "白山市",
		"name": "长白山万达度假村",
		"address": "吉林省白山市抚松县",
		"location": {
			"latitude": 42.107428351743,
			"longitude": 127.51396293311
		},
		"published": true,
		"type": "HELICOPTER",
		"description": ""
	},
	{
		"province": "吉林省",
		"city": "长春市",
		"name": "长春心脏病医院",
		"address": "吉林省长春市南关区净月大街5558",
		"location": {
			"latitude": 43.812347880908,
			"longitude": 125.45849383844
		},
		"published": true,
		"type": "HELICOPTER",
		"description": ""
	},
	{
		"province": "吉林省",
		"city": "延边朝鲜族自治州",
		"name": "龙井梨花酒店",
		"address": "吉林省延边朝鲜族自治州龙井市龙和路289号",
		"location": {
			"latitude": 42.773566330601,
			"longitude": 129.41765428725
		},
		"published": true,
		"type": "HELICOPTER",
		"description": ""
	},
	{
		"province": "吉林省",
		"city": "延边朝鲜族自治州",
		"name": "二道白河镇池北医院（第一起降点）",
		"address": "吉林省延边朝鲜族自治州安图县池北大街",
		"location": {
			"latitude": 42.432850107239,
			"longitude": 128.13080463737
		},
		"published": true,
		"type": "HELICOPTER",
		"description": ""
	},
	{
		"province": "吉林省",
		"city": "延边朝鲜族自治州",
		"name": "二道白河镇池北医院（第二起降点）",
		"address": "吉林省延边朝鲜族自治州安图县池北大街",
		"location": {
			"latitude": 42.432865232291,
			"longitude": 128.131359601
		},
		"published": true,
		"type": "HELICOPTER",
		"description": ""
	},
	{
		"province": "吉林省",
		"city": "延边朝鲜族自治州",
		"name": "二道白河镇边防支队",
		"address": "吉林省延边朝鲜族自治州安图县园池路",
		"location": {
			"latitude": 42.426090461055,
			"longitude": 128.14045800722
		},
		"published": true,
		"type": "HELICOPTER",
		"description": ""
	},
	{
		"province": "吉林省",
		"city": "延边朝鲜族自治州",
		"name": "二道白河镇消防支队",
		"address": "吉林省延边朝鲜族自治州安图县池北大街",
		"location": {
			"latitude": 42.431194784519,
			"longitude": 128.13108463345
		},
		"published": true,
		"type": "HELICOPTER",
		"description": ""
	},
	{
		"province": "吉林省",
		"city": "长春市",
		"name": "吉林双胜粮食有限公司院内",
		"address": "吉林省长春市农安县",
		"location": {
			"latitude": 44.471970618364,
			"longitude": 125.19751280116
		},
		"published": true,
		"type": "HELICOPTER",
		"description": ""
	},
	{
		"province": "吉林省",
		"city": "松原市",
		"name": "隆泰福利综合厂大院",
		"address": "吉林省松原市宁江区成吉思汗大街",
		"location": {
			"latitude": 45.099245203961,
			"longitude": 124.87835382276
		},
		"published": true,
		"type": "HELICOPTER",
		"description": ""
	},
	{
		"province": "吉林省",
		"city": "白城市",
		"name": "锦江宾馆停车场",
		"address": "吉林省白城市洮南市育英东路",
		"location": {
			"latitude": 45.36486025423,
			"longitude": 122.82030657107
		},
		"published": true,
		"type": "HELICOPTER",
		"description": ""
	},
	{
		"province": "吉林省",
		"city": "白山市",
		"name": "池西政府",
		"address": "吉林省白山市抚松县天池大道",
		"location": {
			"latitude": 42.156617096566,
			"longitude": 127.51730919797
		},
		"published": true,
		"type": "HELICOPTER",
		"description": ""
	},
	{
		"province": "吉林省",
		"city": "白山市",
		"name": "池西职业学校操场",
		"address": "吉林省白山市抚松县天池大道",
		"location": {
			"latitude": 42.156600742825,
			"longitude": 127.51344330055
		},
		"published": true,
		"type": "HELICOPTER",
		"description": ""
	},
	{
		"province": "吉林省",
		"city": "白山市",
		"name": "那尔轰镇",
		"address": "吉林省白山市靖宇县X043",
		"location": {
			"latitude": 42.720109441594,
			"longitude": 127.00627200149
		},
		"published": true,
		"type": "HELICOPTER",
		"description": ""
	},
	{
		"province": "吉林省",
		"city": "白山市",
		"name": "蒙江乡",
		"address": "吉林省白山市靖宇县S302",
		"location": {
			"latitude": 42.411343403957,
			"longitude": 126.77397551779
		},
		"published": true,
		"type": "HELICOPTER",
		"description": ""
	},
	{
		"province": "吉林省",
		"city": "白山市",
		"name": "万良镇北山村北山小学",
		"address": "吉林省白山市抚松县X094",
		"location": {
			"latitude": 42.552662013145,
			"longitude": 127.24276586655
		},
		"published": true,
		"type": "HELICOPTER",
		"description": ""
	},
	{
		"province": "吉林省",
		"city": "吉林市",
		"name": "红石镇中学",
		"address": "吉林省吉林市桦甸市长大路4063号",
		"location": {
			"latitude": 42.968972623517,
			"longitude": 127.09589374677
		},
		"published": true,
		"type": "HELICOPTER",
		"description": ""
	},
	{
		"province": "吉林省",
		"city": "白山市",
		"name": "浑江区卫国路8号白山市力华矿业有限公司",
		"address": "吉林省白山市浑江区S303",
		"location": {
			"latitude": 41.939479452727,
			"longitude": 126.44988690948
		},
		"published": true,
		"type": "HELICOPTER",
		"description": ""
	},
	{
		"province": "吉林省",
		"city": "延边朝鲜族自治州",
		"name": "开发区第五号园区久兴汽车园",
		"address": "吉林省延边朝鲜族自治州敦化市工业路",
		"location": {
			"latitude": 43.398686881182,
			"longitude": 128.27153308515
		},
		"published": true,
		"type": "HELICOPTER",
		"description": ""
	},
	{
		"province": "吉林省",
		"city": "吉林市",
		"name": "开发区荣昌街宝信清真食品有限公司",
		"address": "吉林省吉林市桦甸市",
		"location": {
			"latitude": 43.001547821898,
			"longitude": 126.78028307194
		},
		"published": true,
		"type": "HELICOPTER",
		"description": ""
	},
	{
		"province": "吉林省",
		"city": "吉林市",
		"name": "昌邑区哈达湾街麻袋厂中交三公局项目部",
		"address": "吉林省吉林市昌邑区松江北路300号",
		"location": {
			"latitude": 43.896517140476,
			"longitude": 126.56372646182
		},
		"published": true,
		"type": "HELICOPTER",
		"description": ""
	},
	{
		"province": "吉林省",
		"city": "长春市",
		"name": "农安市",
		"address": "吉林省长春市农安县S001",
		"location": {
			"latitude": 44.423550238391,
			"longitude": 125.12383104945
		},
		"published": true,
		"type": "HELICOPTER",
		"description": ""
	},
	{
		"province": "吉林省",
		"city": "辽源市",
		"name": "吉林睿康生物有限公司",
		"address": "吉林省辽源市东丰县G303(集锡线)",
		"location": {
			"latitude": 42.69020389372,
			"longitude": 125.56700834632
		},
		"published": true,
		"type": "HELICOPTER",
		"description": ""
	},
	{
		"province": "吉林省",
		"city": "吉林市",
		"name": "船营区越北镇",
		"address": "吉林省吉林市船营区G302(迎宾大路)",
		"location": {
			"latitude": 43.875810795387,
			"longitude": 126.50567633348
		},
		"published": true,
		"type": "HELICOPTER",
		"description": ""
	},
	{
		"province": "广西壮族自治区",
		"city": "桂林市",
		"name": "龙脊景区",
		"address": "广西壮族自治区桂林市兴安县",
		"location": {
			"latitude": 25.728051576714,
			"longitude": 110.66636019637
		},
		"published": true,
		"type": "HELICOPTER",
		"description": ""
	},
	{
		"province": "新疆维吾尔自治区",
		"city": "哈密地区",
		"name": "哈密城区东北3公里，技术质量监督局科技研发基地",
		"address": "新疆维吾尔自治区哈密地区哈密市",
		"location": {
			"latitude": 42.902329675551,
			"longitude": 93.591639720382
		},
		"published": true,
		"type": "HELICOPTER",
		"description": ""
	},
	{
		"province": "新疆维吾尔自治区",
		"city": "巴音郭楞蒙古自治州",
		"name": "硕城区南侧1公里路西，金湖粮油购销有限公司",
		"address": "新疆维吾尔自治区巴音郭楞蒙古自治州和硕县",
		"location": {
			"latitude": 42.304178776474,
			"longitude": 86.859219094982
		},
		"published": true,
		"type": "HELICOPTER",
		"description": ""
	},
	{
		"province": "新疆维吾尔自治区",
		"city": "伊犁哈萨克自治州",
		"name": "尼勒克城区正东1.5公里，尼勒克消防中队",
		"address": "新疆维吾尔自治区伊犁哈萨克自治州尼勒克县",
		"location": {
			"latitude": 43.800464048183,
			"longitude": 82.530229313257
		},
		"published": true,
		"type": "HELICOPTER",
		"description": ""
	},
	{
		"province": "新疆维吾尔自治区",
		"city": "博尔塔拉蒙古自治州",
		"name": "精河城区正西疆农农业发展有限公司",
		"address": "新疆维吾尔自治区博尔塔拉蒙古自治州精河县",
		"location": {
			"latitude": 44.557928689561,
			"longitude": 82.904856651338
		},
		"published": true,
		"type": "HELICOPTER",
		"description": ""
	},
	{
		"province": "新疆维吾尔自治区",
		"city": "克拉玛依市",
		"name": "奎屯南独山子城区西南侧石油运输公司车队停车场（废弃老油库对面）",
		"address": "新疆维吾尔自治区克拉玛依市独山子区南环西路",
		"location": {
			"latitude": 44.321183140122,
			"longitude": 84.866071592463
		},
		"published": true,
		"type": "HELICOPTER",
		"description": ""
	},
	{
		"province": "新疆维吾尔自治区",
		"city": "克拉玛依市",
		"name": "奎屯南独山子城区西南侧石油运输公司车队停车场北150米。",
		"address": "新疆维吾尔自治区克拉玛依市独山子区奎河路",
		"location": {
			"latitude": 44.322002488844,
			"longitude": 84.866901276355
		},
		"published": true,
		"type": "HELICOPTER",
		"description": ""
	},
	{
		"province": "新疆维吾尔自治区",
		"city": "乌鲁木齐市",
		"name": "国家电网乌鲁木齐电业局的下属公司新疆新特顺前峰水电工程有限公司",
		"address": "新疆维吾尔自治区乌鲁木齐市米东区石化中路",
		"location": {
			"latitude": 44.003401210228,
			"longitude": 87.755396863357
		},
		"published": true,
		"type": "HELICOPTER",
		"description": ""
	},
	{
		"province": "新疆维吾尔自治区",
		"city": "哈密地区",
		"name": "石河子通用机场",
		"address": "新疆维吾尔自治区哈密地区哈密市",
		"location": {
			"latitude": 42.902331638645,
			"longitude": 93.591725037268
		},
		"published": true,
		"type": "HELICOPTER",
		"description": ""
	},
	{
		"province": "新疆维吾尔自治区",
		"city": "吐鲁番地区",
		"name": "吐鲁番城区西侧，未到G30收费站路南。（75KV高压线塔旁）",
		"address": "新疆维吾尔自治区吐鲁番地区吐鲁番市",
		"location": {
			"latitude": 42.998376623188,
			"longitude": 89.124871754208
		},
		"published": true,
		"type": "HELICOPTER",
		"description": ""
	},
	{
		"province": "新疆维吾尔自治区",
		"city": "吐鲁番地区",
		"name": "直升机起降点",
		"address": "新疆维吾尔自治区吐鲁番地区吐鲁番市",
		"location": {
			"latitude": 42.998563471866,
			"longitude": 89.113813635501
		},
		"published": true,
		"type": "HELICOPTER",
		"description": ""
	},
	{
		"province": "新疆维吾尔自治区",
		"city": "哈密地区",
		"name": "星星峡服务区外，独院。",
		"address": "新疆维吾尔自治区哈密地区哈密市",
		"location": {
			"latitude": 41.802311448054,
			"longitude": 95.144932260264
		},
		"published": true,
		"type": "HELICOPTER",
		"description": ""
	},
	{
		"province": "新疆维吾尔自治区",
		"city": "博尔塔拉蒙古自治州",
		"name": "直升机起降点",
		"address": "新疆维吾尔自治区博尔塔拉蒙古自治州精河县",
		"location": {
			"latitude": 44.557925418521,
			"longitude": 82.90485530388
		},
		"published": true,
		"type": "HELICOPTER",
		"description": ""
	},
	{
		"province": "新疆维吾尔自治区",
		"city": "石河子市",
		"name": "直升机起降点",
		"address": "新疆维吾尔自治区石河子市",
		"location": {
			"latitude": 44.248152038004,
			"longitude": 86.030760470477
		},
		"published": true,
		"type": "HELICOPTER",
		"description": ""
	},
	{
		"province": "新疆维吾尔自治区",
		"city": "哈密地区",
		"name": "中国建材中复连众（哈密复合材料有限公司）",
		"address": "新疆维吾尔自治区哈密地区哈密市",
		"location": {
			"latitude": 42.902883625885,
			"longitude": 93.590891120554
		},
		"published": true,
		"type": "HELICOPTER",
		"description": ""
	},
	{
		"province": "新疆维吾尔自治区",
		"city": "阿勒泰地区",
		"name": "可可托海镇宝宝石街大院",
		"address": "新疆维吾尔自治区阿勒泰地区富蕴县Z842",
		"location": {
			"latitude": 47.21936395048,
			"longitude": 89.820320320901
		},
		"published": true,
		"type": "HELICOPTER",
		"description": ""
	},
	{
		"province": "新疆维吾尔自治区",
		"city": "阿勒泰地区",
		"name": "青河隆濠发展有限公司大院",
		"address": "新疆维吾尔自治区阿勒泰地区青河县S228",
		"location": {
			"latitude": 46.658108804146,
			"longitude": 90.333979605825
		},
		"published": true,
		"type": "HELICOPTER",
		"description": ""
	},
	{
		"province": "新疆维吾尔自治区",
		"city": "阿勒泰地区",
		"name": "青河气象站起降点",
		"address": "新疆维吾尔自治区阿勒泰地区青河县环城东路1号",
		"location": {
			"latitude": 46.68021918535,
			"longitude": 90.394591474847
		},
		"published": true,
		"type": "HELICOPTER",
		"description": ""
	},
	{
		"province": "新疆维吾尔自治区",
		"city": "阿勒泰地区",
		"name": "富蕴县回民盆盆肉饭店后院",
		"address": "新疆维吾尔自治区阿勒泰地区青河县S228",
		"location": {
			"latitude": 46.034357657757,
			"longitude": 90.156128238947
		},
		"published": true,
		"type": "HELICOPTER",
		"description": ""
	},
	{
		"province": "新疆维吾尔自治区",
		"city": "阿勒泰地区",
		"name": "恰库尔图起降点",
		"address": "新疆维吾尔自治区阿勒泰地区富蕴县G216(阿巴线)",
		"location": {
			"latitude": 46.34216941792,
			"longitude": 89.54942595427
		},
		"published": true,
		"type": "HELICOPTER",
		"description": ""
	},
	{
		"province": "新疆维吾尔自治区",
		"city": "阿勒泰地区",
		"name": "青河蓝天驾校",
		"address": "新疆维吾尔自治区阿勒泰地区青河县环城北路",
		"location": {
			"latitude": 46.690119628295,
			"longitude": 90.37838463073
		},
		"published": true,
		"type": "HELICOPTER",
		"description": ""
	},
	{
		"province": "新疆维吾尔自治区",
		"city": "阿克苏地区",
		"name": "拜城县老虎台",
		"address": "新疆维吾尔自治区阿克苏地区拜城县",
		"location": {
			"latitude": 41.807670679412,
			"longitude": 81.196955606424
		},
		"published": true,
		"type": "HELICOPTER",
		"description": ""
	},
	{
		"province": "新疆维吾尔自治区",
		"city": "阿克苏地区",
		"name": "拜城县",
		"address": "新疆维吾尔自治区阿克苏地区拜城县",
		"location": {
			"latitude": 41.784737884898,
			"longitude": 81.818289377892
		},
		"published": true,
		"type": "HELICOPTER",
		"description": ""
	},
	{
		"province": "福建省",
		"city": "龙岩市",
		"name": "龙岩市",
		"address": "福建省龙岩市新罗区联发路",
		"location": {
			"latitude": 25.047137547327,
			"longitude": 117.00787505642
		},
		"published": true,
		"type": "HELICOPTER",
		"description": ""
	},
	{
		"province": "上海市",
		"city": "上海市",
		"name": "上海万达广场江桥店",
		"address": "上海市嘉定区华江公路980号",
		"location": {
			"latitude": 31.245811409608,
			"longitude": 121.33263183459
		},
		"published": true,
		"type": "HELICOPTER",
		"description": ""
	},
	{
		"province": "上海市",
		"city": "上海市",
		"name": "上海万达广场松江店",
		"address": "上海市松江区广富林路",
		"location": {
			"latitude": 31.062836640044,
			"longitude": 121.24873582858
		},
		"published": true,
		"type": "HELICOPTER",
		"description": ""
	},
	{
		"province": "海南省",
		"city": "三亚市",
		"name": "海航旅游学院草坪",
		"address": "海南省三亚市市辖区育新路",
		"location": {
			"latitude": 18.29769830284,
			"longitude": 109.49572398479
		},
		"published": true,
		"type": "HELICOPTER",
		"description": ""
	},
	{
		"province": "海南省",
		"city": "三亚市",
		"name": "海航旅游学院教工宿舍旁边水泥地",
		"address": "海南省三亚市市辖区育新路",
		"location": {
			"latitude": 18.298542169971,
			"longitude": 109.49488934295
		},
		"published": true,
		"type": "HELICOPTER",
		"description": ""
	},
	{
		"province": "海南省",
		"city": "三亚市",
		"name": "海航旅游学院机坪",
		"address": "海南省三亚市市辖区凤凰路",
		"location": {
			"latitude": 18.295706823776,
			"longitude": 109.50099463746
		},
		"published": true,
		"type": "HELICOPTER",
		"description": ""
	},
	{
		"province": "海南省",
		"city": "三亚市",
		"name": "蜈支洲岛内冬季码头",
		"address": "海南省三亚市市辖区",
		"location": {
			"latitude": 18.316912275501,
			"longitude": 109.76568292364
		},
		"published": true,
		"type": "HELICOPTER",
		"description": ""
	},
	{
		"province": "海南省",
		"city": "三亚市",
		"name": "蜈支洲岛内夏季码头",
		"address": "海南省三亚市市辖区",
		"location": {
			"latitude": 18.319754709503,
			"longitude": 109.76983226131
		},
		"published": true,
		"type": "HELICOPTER",
		"description": ""
	},
	{
		"province": "海南省",
		"city": "三亚市",
		"name": "蜈支洲岛内篮球场",
		"address": "海南省三亚市市辖区",
		"location": {
			"latitude": 18.317306819446,
			"longitude": 109.77287895346
		},
		"published": true,
		"type": "HELICOPTER",
		"description": ""
	},
	{
		"province": "海南省",
		"city": "三亚市",
		"name": "康莱德酒店草地",
		"address": "海南省三亚市市辖区",
		"location": {
			"latitude": 18.337306542071,
			"longitude": 109.74569761382
		},
		"published": true,
		"type": "HELICOPTER",
		"description": ""
	},
	{
		"province": "海南省",
		"city": "保亭黎族苗族自治县",
		"name": "保亭神玉景区",
		"address": "海南省保亭黎族苗族自治县",
		"location": {
			"latitude": 18.658928634964,
			"longitude": 109.58907478555
		},
		"published": true,
		"type": "HELICOPTER",
		"description": ""
	},
	{
		"province": "海南省",
		"city": "三亚市",
		"name": "鸿洲时代海岸浮台",
		"address": "海南省三亚市市辖区",
		"location": {
			"latitude": 18.534796708729,
			"longitude": 109.51595527809
		},
		"published": true,
		"type": "HELICOPTER",
		"description": ""
	},
	{
		"province": "海南省",
		"city": "三亚市",
		"name": "鸿洲时代海岸广场",
		"address": "海南省三亚市市辖区鸿洲路",
		"location": {
			"latitude": 18.237651419985,
			"longitude": 109.51758046407
		},
		"published": true,
		"type": "HELICOPTER",
		"description": ""
	},
	{
		"province": "海南省",
		"city": "三亚市",
		"name": "301海南分院",
		"address": "海南省三亚市市辖区环湖路",
		"location": {
			"latitude": 18.297831997454,
			"longitude": 109.72065265735
		},
		"published": true,
		"type": "HELICOPTER",
		"description": ""
	},
	{
		"province": "海南省",
		"city": "三亚市",
		"name": "凤凰机场消防楼后",
		"address": "海南省三亚市市辖区",
		"location": {
			"latitude": 18.307668729525,
			"longitude": 109.42299126376
		},
		"published": true,
		"type": "HELICOPTER",
		"description": ""
	},
	{
		"province": "海南省",
		"city": "三亚市",
		"name": "唐拉雅秀酒店",
		"address": "海南省三亚市市辖区新城路",
		"location": {
			"latitude": 18.295304496966,
			"longitude": 109.39361351864
		},
		"published": true,
		"type": "HELICOPTER",
		"description": ""
	},
	{
		"province": "海南省",
		"city": "海口市",
		"name": "海航广场",
		"address": "海南省海口市琼山区大英山西三路",
		"location": {
			"latitude": 20.021160427694,
			"longitude": 110.35121223633
		},
		"published": true,
		"type": "HELICOPTER",
		"description": ""
	},
	{
		"province": "海南省",
		"city": "海口市",
		"name": "新国宾馆",
		"address": "海南省海口市秀英区滨海大道",
		"location": {
			"latitude": 20.05603624305,
			"longitude": 110.22529332254
		},
		"published": true,
		"type": "HELICOPTER",
		"description": ""
	},
	{
		"province": "海南省",
		"city": "三亚市",
		"name": "鸿州海上浮台",
		"address": "海南省三亚市市辖区鸿洲路",
		"location": {
			"latitude": 18.234870070709,
			"longitude": 109.51591993938
		},
		"published": true,
		"type": "HELICOPTER",
		"description": ""
	},
	{
		"province": "海南省",
		"city": "三亚市",
		"name": "鸿州内广场",
		"address": "海南省三亚市市辖区鸿洲路",
		"location": {
			"latitude": 18.23765904471,
			"longitude": 109.51758345051
		},
		"published": true,
		"type": "HELICOPTER",
		"description": ""
	},
	{
		"province": "海南省",
		"city": "海口市",
		"name": "国兴城售楼处停车场",
		"address": "海南省海口市美兰区国兴大道",
		"location": {
			"latitude": 20.024063739839,
			"longitude": 110.36315899628
		},
		"published": true,
		"type": "HELICOPTER",
		"description": ""
	},
	{
		"province": "海南省",
		"city": "海口市",
		"name": "望海国际广场",
		"address": "海南省海口市美兰区海秀路6号",
		"location": {
			"latitude": 20.036988027057,
			"longitude": 110.35122440536
		},
		"published": true,
		"type": "HELICOPTER",
		"description": ""
	},
	{
		"province": "海南省",
		"city": "海口市",
		"name": "美兰机场",
		"address": "海南省海口市美兰区",
		"location": {
			"latitude": 19.942632655613,
			"longitude": 110.46212304632
		},
		"published": true,
		"type": "HELICOPTER",
		"description": ""
	},
	{
		"province": "海南省",
		"city": "海口市",
		"name": "西海岸会所停车场",
		"address": "海南省海口市秀英区",
		"location": {
			"latitude": 20.039695674053,
			"longitude": 110.23720107923
		},
		"published": true,
		"type": "HELICOPTER",
		"description": ""
	},
	{
		"province": "海南省",
		"city": "海口市",
		"name": "西海岸会所草坪",
		"address": "海南省海口市秀英区",
		"location": {
			"latitude": 20.040246857843,
			"longitude": 110.23691807609
		},
		"published": true,
		"type": "HELICOPTER",
		"description": ""
	},
	{
		"province": "海南省",
		"city": "万宁市",
		"name": "康乐园平台",
		"address": "海南省万宁市",
		"location": {
			"latitude": 18.765098742681,
			"longitude": 110.23632667098
		},
		"published": true,
		"type": "HELICOPTER",
		"description": ""
	},
	{
		"province": "海南省",
		"city": "万宁市",
		"name": "康乐园草坪",
		"address": "海南省万宁市",
		"location": {
			"latitude": 18.764543860975,
			"longitude": 110.23604548542
		},
		"published": true,
		"type": "HELICOPTER",
		"description": ""
	},
	{
		"province": "海南省",
		"city": "琼海市",
		"name": "博鳌机场",
		"address": "海南省琼海市",
		"location": {
			"latitude": 19.145189190003,
			"longitude": 110.4681663259
		},
		"published": true,
		"type": "HELICOPTER",
		"description": ""
	},
	{
		"province": "海南省",
		"city": "海口市",
		"name": "新国宾馆",
		"address": "海南省海口市秀英区滨海大道",
		"location": {
			"latitude": 20.055477074873,
			"longitude": 110.22528902479
		},
		"published": true,
		"type": "HELICOPTER",
		"description": ""
	},
	{
		"province": "海南省",
		"city": "三亚市",
		"name": "蜈支洲岛外停机点1",
		"address": "海南省三亚市市辖区",
		"location": {
			"latitude": 18.279944126106,
			"longitude": 109.72930249868
		},
		"published": true,
		"type": "HELICOPTER",
		"description": ""
	},
	{
		"province": "海南省",
		"city": "三亚市",
		"name": "蜈支洲岛外停机点2",
		"address": "海南省三亚市市辖区",
		"location": {
			"latitude": 18.279075445011,
			"longitude": 109.7320909438
		},
		"published": true,
		"type": "HELICOPTER",
		"description": ""
	},
	{
		"province": "海南省",
		"city": "三亚市",
		"name": "亚太会议中心内",
		"address": "海南省三亚市市辖区三亚湾路219",
		"location": {
			"latitude": 18.295919543548,
			"longitude": 109.39944208795
		},
		"published": true,
		"type": "HELICOPTER",
		"description": ""
	},
	{
		"province": "海南省",
		"city": "三亚市",
		"name": "蜈支洲岛上篮球场备降场",
		"address": "海南省三亚市市辖区",
		"location": {
			"latitude": 18.317303606043,
			"longitude": 109.77288139075
		},
		"published": true,
		"type": "HELICOPTER",
		"description": ""
	},
	{
		"province": "重庆市",
		"city": "重庆市",
		"name": "荣昌板桥工业园五支路2号",
		"address": "重庆市荣昌县园区五支路",
		"location": {
			"latitude": 29.412748112304,
			"longitude": 105.63768369578
		},
		"published": true,
		"type": "HELICOPTER",
		"description": ""
	},
	{
		"province": "重庆市",
		"city": "重庆市",
		"name": "荣昌大道东段富吉集团",
		"address": "重庆市荣昌县灵方大道",
		"location": {
			"latitude": 29.409445413721,
			"longitude": 105.63572076607
		},
		"published": true,
		"type": "HELICOPTER",
		"description": ""
	},
	{
		"province": "重庆市",
		"city": "重庆市",
		"name": "板桥工业园灵方大道江特表面处理公司",
		"address": "重庆市荣昌县灵方大道",
		"location": {
			"latitude": 29.409235618542,
			"longitude": 105.6505402707
		},
		"published": true,
		"type": "HELICOPTER",
		"description": ""
	},
	{
		"province": "湖北省",
		"city": "宜昌市",
		"name": "三峡游客中心停车场",
		"address": "湖北省宜昌市伍家岗区沿江大道142号",
		"location": {
			"latitude": 30.686852368733,
			"longitude": 111.31032246924
		},
		"published": true,
		"type": "HELICOPTER",
		"description": ""
	},
	{
		"province": "湖北省",
		"city": "宜昌市",
		"name": "西陵区峡口风景区大湾空地",
		"address": "湖北省宜昌市西陵区三峡专用路",
		"location": {
			"latitude": 30.77943524113,
			"longitude": 111.2754606334
		},
		"published": true,
		"type": "HELICOPTER",
		"description": ""
	},
	{
		"province": "湖北省",
		"city": "宜昌市",
		"name": "远安县河口乡武陵峡景区",
		"address": "湖北省宜昌市远安县",
		"location": {
			"latitude": 31.26143377439,
			"longitude": 111.59373002602
		},
		"published": true,
		"type": "HELICOPTER",
		"description": ""
	},
	{
		"province": "湖北省",
		"city": "宜昌市",
		"name": "远安县花林寺镇金家湾风景区",
		"address": "湖北省宜昌市远安县",
		"location": {
			"latitude": 31.018733961953,
			"longitude": 111.62512774718
		},
		"published": true,
		"type": "HELICOPTER",
		"description": ""
	},
	{
		"province": "湖北省",
		"city": "宜昌市",
		"name": "枝江市安福寺镇东方年华农场",
		"address": "湖北省宜昌市枝江市Y002",
		"location": {
			"latitude": 30.540563650611,
			"longitude": 111.61281705396
		},
		"published": true,
		"type": "HELICOPTER",
		"description": ""
	},
	{
		"province": "湖北省",
		"city": "宜昌市",
		"name": "秭归县九畹溪镇九畹溪漂流景区",
		"address": "湖北省宜昌市秭归县",
		"location": {
			"latitude": 30.783012354418,
			"longitude": 110.8120152492
		},
		"published": true,
		"type": "HELICOPTER",
		"description": ""
	},
	{
		"province": "湖北省",
		"city": "宜昌市",
		"name": "兴山县昭君故里景区",
		"address": "湖北省宜昌市兴山县S312",
		"location": {
			"latitude": 31.218148617403,
			"longitude": 110.88848703347
		},
		"published": true,
		"type": "HELICOPTER",
		"description": ""
	},
	{
		"province": "湖北省",
		"city": "宜昌市",
		"name": "兴山县朝天吼漂流景区停车场",
		"address": "湖北省宜昌市兴山县X241(两古路)",
		"location": {
			"latitude": 31.218988277996,
			"longitude": 110.88765212251
		},
		"published": true,
		"type": "HELICOPTER",
		"description": ""
	},
	{
		"province": "湖北省",
		"city": "宜昌市",
		"name": "花林寺镇百里荒景区",
		"address": "湖北省宜昌市夷陵区",
		"location": {
			"latitude": 30.950656014576,
			"longitude": 111.51419068473
		},
		"published": true,
		"type": "HELICOPTER",
		"description": ""
	},
	{
		"province": "湖北省",
		"city": "宜昌市",
		"name": "当阳市当阳关林",
		"address": "湖北省宜昌市当阳市S224(关陵路)",
		"location": {
			"latitude": 30.846360407899,
			"longitude": 111.78046272823
		},
		"published": true,
		"type": "HELICOPTER",
		"description": ""
	},
	{
		"province": "湖北省",
		"city": "宜昌市",
		"name": "当阳市玉泉寺",
		"address": "湖北省宜昌市当阳市X230(玉泉路)",
		"location": {
			"latitude": 30.792774967714,
			"longitude": 111.70082337098
		},
		"published": true,
		"type": "HELICOPTER",
		"description": ""
	},
	{
		"province": "湖北省",
		"city": "宜昌市",
		"name": "夷陵区不老岭风景区",
		"address": "湖北省宜昌市夷陵区",
		"location": {
			"latitude": 31.07358440907,
			"longitude": 110.93365165112
		},
		"published": true,
		"type": "HELICOPTER",
		"description": ""
	},
	{
		"province": "湖北省",
		"city": "宜昌市",
		"name": "长阳县清江画廊风景区",
		"address": "湖北省宜昌市长阳土家族自治县土家风情街",
		"location": {
			"latitude": 30.475199862596,
			"longitude": 111.14461763105
		},
		"published": true,
		"type": "HELICOPTER",
		"description": ""
	},
	{
		"province": "湖北省",
		"city": "宜昌市",
		"name": "柴阜溪国家森林公园",
		"address": "湖北省宜昌市五峰土家族自治县",
		"location": {
			"latitude": 30.233279443136,
			"longitude": 110.95865097901
		},
		"published": true,
		"type": "HELICOPTER",
		"description": ""
	},
	{
		"province": "湖北省",
		"city": "宜昌市",
		"name": "宜都市天龙湾景区",
		"address": "湖北省宜昌市宜都市",
		"location": {
			"latitude": 30.502737010597,
			"longitude": 111.32117467081
		},
		"published": true,
		"type": "HELICOPTER",
		"description": ""
	},
	{
		"province": "海南省",
		"city": "琼海市",
		"name": "博鳌机场",
		"address": "海南省琼海市",
		"location": {
			"latitude": 19.1451881075,
			"longitude": 110.46816795421
		},
		"published": true,
		"type": "HELICOPTER",
		"description": ""
	},
	{
		"province": "海南省",
		"city": "海口市",
		"name": "新国宾馆",
		"address": "海南省海口市秀英区滨海大道",
		"location": {
			"latitude": 20.055478156024,
			"longitude": 110.22529255298
		},
		"published": true,
		"type": "HELICOPTER",
		"description": ""
	},
	{
		"province": "黑龙江省",
		"city": "绥化市",
		"name": "南门停车场",
		"address": "黑龙江省绥化市海伦市",
		"location": {
			"latitude": 47.455238616969,
			"longitude": 126.97504907218
		},
		"published": true,
		"type": "HELICOPTER",
		"description": ""
	},
	{
		"province": "黑龙江省",
		"city": "伊春市",
		"name": "九河泉肥业",
		"address": "黑龙江省伊春市铁力市",
		"location": {
			"latitude": 46.986054204618,
			"longitude": 128.02075092025
		},
		"published": true,
		"type": "HELICOPTER",
		"description": ""
	},
	{
		"province": "黑龙江省",
		"city": "佳木斯市",
		"name": "永丰粮食贸易有限公司",
		"address": "黑龙江省佳木斯市汤原县",
		"location": {
			"latitude": 46.753288184301,
			"longitude": 129.93978668111
		},
		"published": true,
		"type": "HELICOPTER",
		"description": ""
	},
	{
		"province": "辽宁省",
		"city": "葫芦岛市",
		"name": "前所镇国家电网大院",
		"address": "辽宁省葫芦岛市绥中县绥电线",
		"location": {
			"latitude": 40.095311800782,
			"longitude": 119.96492514381
		},
		"published": true,
		"type": "HELICOPTER",
		"description": ""
	},
	{
		"province": "辽宁省",
		"city": "葫芦岛市",
		"name": "个人粮库",
		"address": "辽宁省葫芦岛市绥中县G102(京哈线)",
		"location": {
			"latitude": 40.134812799309,
			"longitude": 119.99705824833
		},
		"published": true,
		"type": "HELICOPTER",
		"description": ""
	},
	{
		"province": "辽宁省",
		"city": "朝阳市",
		"name": "朝阳重型机器制造有限公司",
		"address": "辽宁省朝阳市双塔区",
		"location": {
			"latitude": 41.643795578366,
			"longitude": 120.51306874953
		},
		"published": true,
		"type": "HELICOPTER",
		"description": ""
	},
	{
		"province": "辽宁省",
		"city": "锦州市",
		"name": "长鹏重型机器厂",
		"address": "辽宁省锦州市北镇市G102(京哈线)",
		"location": {
			"latitude": 41.411142376085,
			"longitude": 121.79126763858
		},
		"published": true,
		"type": "HELICOPTER",
		"description": ""
	},
	{
		"province": "辽宁省",
		"city": "葫芦岛市",
		"name": "凤城开发区丹东生大食品有限公司",
		"address": "辽宁省葫芦岛市绥中县",
		"location": {
			"latitude": 40.416802546659,
			"longitude": 120.02327914554
		},
		"published": true,
		"type": "HELICOPTER",
		"description": ""
	},
	{
		"province": "辽宁省",
		"city": "本溪市",
		"name": "环境卫生管理处",
		"address": "辽宁省本溪市本溪满族自治县长江路",
		"location": {
			"latitude": 41.327717367574,
			"longitude": 124.11870651384
		},
		"published": true,
		"type": "HELICOPTER",
		"description": ""
	},
	{
		"province": "辽宁省",
		"city": "沈阳市",
		"name": "候三家社区管委会",
		"address": "辽宁省沈阳市沈北新区旁新线",
		"location": {
			"latitude": 42.078059985816,
			"longitude": 123.54968359444
		},
		"published": true,
		"type": "HELICOPTER",
		"description": ""
	},
	{
		"province": "辽宁省",
		"city": "铁岭市",
		"name": "调兵山北工业区搅拌站",
		"address": "辽宁省铁岭市调兵山市创业路",
		"location": {
			"latitude": 42.502107318612,
			"longitude": 123.58424022959
		},
		"published": true,
		"type": "HELICOPTER",
		"description": ""
	},
	{
		"province": "辽宁省",
		"city": "四平市",
		"name": "四平宝宇粮食贸易有限公司",
		"address": "吉林省四平市梨树县四桑线",
		"location": {
			"latitude": 43.279223426639,
			"longitude": 124.36835901649
		},
		"published": true,
		"type": "HELICOPTER",
		"description": ""
	},
	{
		"province": "吉林省",
		"city": "辽源市",
		"name": "吉林睿康生物有限公司",
		"address": "吉林省辽源市东丰县G303(集锡线)",
		"location": {
			"latitude": 42.690204812519,
			"longitude": 125.56700207122
		},
		"published": true,
		"type": "HELICOPTER",
		"description": ""
	},
	{
		"province": "内蒙古自治区",
		"city": "兴安盟",
		"name": "鼎力起重设备厂",
		"address": "内蒙古自治区兴安盟扎赉特旗",
		"location": {
			"latitude": 46.722398949937,
			"longitude": 122.9035400776
		},
		"published": true,
		"type": "HELICOPTER",
		"description": ""
	},
	{
		"province": "内蒙古自治区",
		"city": "兴安盟",
		"name": "个人大院",
		"address": "内蒙古自治区兴安盟乌兰浩特市",
		"location": {
			"latitude": 46.053906172601,
			"longitude": 122.0249566023
		},
		"published": true,
		"type": "HELICOPTER",
		"description": ""
	},
	{
		"province": "内蒙古自治区",
		"city": "兴安盟",
		"name": "秸秆转化加工厂",
		"address": "内蒙古自治区兴安盟突泉县巴乌线",
		"location": {
			"latitude": 45.363219416139,
			"longitude": 121.55972893813
		},
		"published": true,
		"type": "HELICOPTER",
		"description": ""
	},
	{
		"province": "内蒙古自治区",
		"city": "通辽市",
		"name": "国家电网大院",
		"address": "内蒙古自治区通辽市开鲁县",
		"location": {
			"latitude": 43.582729543381,
			"longitude": 120.92703724768
		},
		"published": true,
		"type": "HELICOPTER",
		"description": ""
	},
	{
		"province": "内蒙古自治区",
		"city": "通辽市",
		"name": "远大彩钢厂",
		"address": "内蒙古自治区通辽市霍林郭勒市远大路",
		"location": {
			"latitude": 45.47425692847,
			"longitude": 119.64986801917
		},
		"published": true,
		"type": "HELICOPTER",
		"description": ""
	},
	{
		"province": "内蒙古自治区",
		"city": "锡林郭勒盟",
		"name": "宏大彩钢板厂",
		"address": "内蒙古自治区锡林郭勒盟西乌珠穆沁旗",
		"location": {
			"latitude": 44.702786557124,
			"longitude": 118.44341227624
		},
		"published": true,
		"type": "HELICOPTER",
		"description": ""
	},
	{
		"province": "内蒙古自治区",
		"city": "赤峰市",
		"name": "直升机起降点",
		"address": "内蒙古自治区赤峰市巴林右旗",
		"location": {
			"latitude": 43.566521550182,
			"longitude": 118.70320730376
		},
		"published": true,
		"type": "HELICOPTER",
		"description": ""
	},
	{
		"province": "海南省",
		"city": "三亚市",
		"name": "蜈支洲岛外停机点1",
		"address": "海南省三亚市市辖区",
		"location": {
			"latitude": 18.2799438218,
			"longitude": 109.72930494565
		},
		"published": true,
		"type": "HELICOPTER",
		"description": ""
	},
	{
		"province": "海南省",
		"city": "三亚市",
		"name": "蜈支洲岛外停机点2",
		"address": "海南省三亚市市辖区",
		"location": {
			"latitude": 18.279076188107,
			"longitude": 109.7320969233
		},
		"published": true,
		"type": "HELICOPTER",
		"description": ""
	},
	{
		"province": "内蒙古自治区",
		"city": "赤峰市",
		"name": "个人设备库",
		"address": "内蒙古自治区赤峰市翁牛特旗工四路",
		"location": {
			"latitude": 42.919790210581,
			"longitude": 119.05137813835
		},
		"published": true,
		"type": "HELICOPTER",
		"description": ""
	},
	{
		"province": "内蒙古自治区",
		"city": "赤峰市",
		"name": "北疆北山粮库",
		"address": "内蒙古自治区赤峰市红山区S205",
		"location": {
			"latitude": 42.350114151496,
			"longitude": 118.910912834
		},
		"published": true,
		"type": "HELICOPTER",
		"description": ""
	},
	{
		"province": "内蒙古自治区",
		"city": "赤峰市",
		"name": "个人大院",
		"address": "内蒙古自治区赤峰市元宝山区古马路",
		"location": {
			"latitude": 42.0641133956,
			"longitude": 119.32919952749
		},
		"published": true,
		"type": "HELICOPTER",
		"description": ""
	},
	{
		"province": "海南省",
		"city": "三亚市",
		"name": "亚太会议中心内",
		"address": "海南省三亚市市辖区三亚湾路219",
		"location": {
			"latitude": 18.295911392192,
			"longitude": 109.39944074135
		},
		"published": true,
		"type": "HELICOPTER",
		"description": ""
	},
	{
		"province": "四川省",
		"city": "攀枝花市",
		"name": "米易县职业技术学校",
		"address": "四川省攀枝花市米易县铁建路",
		"location": {
			"latitude": 26.870995883393,
			"longitude": 102.12005171214
		},
		"published": true,
		"type": "HELICOPTER",
		"description": ""
	},
	{
		"province": "四川省",
		"city": "凉山彝族自治州",
		"name": "德昌县金峰橡胶有限公司",
		"address": "四川省凉山彝族自治州德昌县",
		"location": {
			"latitude": 27.520771603695,
			"longitude": 102.20064069453
		},
		"published": true,
		"type": "HELICOPTER",
		"description": ""
	},
	{
		"province": "四川省",
		"city": "凉山彝族自治州",
		"name": "西昌新钢业有限公司",
		"address": "四川省凉山彝族自治州西昌市S107(机场路一段)",
		"location": {
			"latitude": 27.909365515037,
			"longitude": 102.22409816532
		},
		"published": true,
		"type": "HELICOPTER",
		"description": ""
	},
	{
		"province": "重庆市",
		"city": "重庆市",
		"name": "荣昌板桥工业园五支路2号",
		"address": "重庆市荣昌县园区五支路",
		"location": {
			"latitude": 29.412749211137,
			"longitude": 105.63768287925
		},
		"published": true,
		"type": "HELICOPTER",
		"description": ""
	},
	{
		"province": "四川省",
		"city": "凉山彝族自治州",
		"name": "冕宁县复兴镇中心村",
		"address": "四川省凉山彝族自治州冕宁县G108(京昆线)",
		"location": {
			"latitude": 28.430664708198,
			"longitude": 102.1815393879
		},
		"published": true,
		"type": "HELICOPTER",
		"description": ""
	},
	{
		"province": "四川省",
		"city": "自贡市",
		"name": "沿滩区卫平镇综合管理办公室",
		"address": "四川省自贡市大安区G85(渝昆高速)",
		"location": {
			"latitude": 29.357229131556,
			"longitude": 104.8242527817
		},
		"published": true,
		"type": "HELICOPTER",
		"description": ""
	},
	{
		"province": "四川省",
		"city": "凉山彝族自治州",
		"name": "昭觉县金鑫水泥有限责任公司",
		"address": "四川省凉山彝族自治州昭觉县",
		"location": {
			"latitude": 28.066592509,
			"longitude": 102.9396507672
		},
		"published": true,
		"type": "HELICOPTER",
		"description": ""
	},
	{
		"province": "四川省",
		"city": "乐山市",
		"name": "沐川县吉泰龙食品有限公司",
		"address": "四川省乐山市沐川县城北路518",
		"location": {
			"latitude": 28.974606748939,
			"longitude": 103.91345787893
		},
		"published": true,
		"type": "HELICOPTER",
		"description": ""
	},
	{
		"province": "四川省",
		"city": "乐山市",
		"name": "马边彝族自治县",
		"address": "四川省乐山市马边彝族自治县S103",
		"location": {
			"latitude": 28.829938065358,
			"longitude": 103.53907505584
		},
		"published": true,
		"type": "HELICOPTER",
		"description": ""
	},
	{
		"province": "四川省",
		"city": "乐山市",
		"name": "金口河",
		"address": "四川省乐山市金口河区S306",
		"location": {
			"latitude": 29.2474220124,
			"longitude": 103.07982903176
		},
		"published": true,
		"type": "HELICOPTER",
		"description": ""
	},
	{
		"province": "四川省",
		"city": "凉山彝族自治州",
		"name": "巴浦镇阳光农家院",
		"address": "四川省凉山彝族自治州美姑县",
		"location": {
			"latitude": 28.3387735162,
			"longitude": 103.15057159422
		},
		"published": true,
		"type": "HELICOPTER",
		"description": ""
	},
	{
		"province": "四川省",
		"city": "乐山市",
		"name": "沐川县开源木业",
		"address": "四川省乐山市沐川县",
		"location": {
			"latitude": 28.968402654231,
			"longitude": 103.8880168474
		},
		"published": true,
		"type": "HELICOPTER",
		"description": ""
	},
	{
		"province": "黑龙江省",
		"city": "齐齐哈尔市",
		"name": "碾子山区",
		"address": "黑龙江省齐齐哈尔市碾子山区",
		"location": {
			"latitude": 47.502503574971,
			"longitude": 122.9150962851
		},
		"published": true,
		"type": "HELICOPTER",
		"description": ""
	},
	{
		"province": "云南省",
		"city": "文山壮族苗族自治州",
		"name": "砚山",
		"address": "云南省文山壮族苗族自治州砚山县",
		"location": {
			"latitude": 23.659834136024,
			"longitude": 104.3541361292
		},
		"published": true,
		"type": "HELICOPTER",
		"description": ""
	},
	{
		"province": "云南省",
		"city": "红河哈尼族彝族自治州",
		"name": "开远市",
		"address": "云南省红河哈尼族彝族自治州开远市市西南路",
		"location": {
			"latitude": 23.689737611048,
			"longitude": 103.25418288283
		},
		"published": true,
		"type": "HELICOPTER",
		"description": ""
	},
	{
		"province": "云南省",
		"city": "红河哈尼族彝族自治州",
		"name": "个旧市",
		"address": "云南省红河哈尼族彝族自治州个旧市S212",
		"location": {
			"latitude": 23.520487655714,
			"longitude": 103.24133256395
		},
		"published": true,
		"type": "HELICOPTER",
		"description": ""
	},
	{
		"province": "云南省",
		"city": "红河哈尼族彝族自治州",
		"name": "建水县",
		"address": "云南省红河哈尼族彝族自治州建水县",
		"location": {
			"latitude": 23.646843575427,
			"longitude": 102.83865929723
		},
		"published": true,
		"type": "HELICOPTER",
		"description": ""
	},
	{
		"province": "云南省",
		"city": "红河哈尼族彝族自治州",
		"name": "建水县",
		"address": "云南省红河哈尼族彝族自治州建水县",
		"location": {
			"latitude": 23.661019478443,
			"longitude": 102.8472586424
		},
		"published": true,
		"type": "HELICOPTER",
		"description": ""
	},
	{
		"province": "云南省",
		"city": "红河哈尼族彝族自治州",
		"name": "红河县",
		"address": "云南省红河哈尼族彝族自治州红河县",
		"location": {
			"latitude": 23.357081250395,
			"longitude": 102.43310018119
		},
		"published": true,
		"type": "HELICOPTER",
		"description": ""
	},
	{
		"province": "云南省",
		"city": "玉溪市",
		"name": "元江县",
		"address": "云南省玉溪市元江G213(兰磨线)",
		"location": {
			"latitude": 23.650344618649,
			"longitude": 101.98589799456
		},
		"published": true,
		"type": "HELICOPTER",
		"description": ""
	},
	{
		"province": "云南省",
		"city": "玉溪市",
		"name": "江川县",
		"address": "云南省玉溪市江川县",
		"location": {
			"latitude": 24.320573630907,
			"longitude": 102.72145153964
		},
		"published": true,
		"type": "HELICOPTER",
		"description": ""
	},
	{
		"province": "云南省",
		"city": "普洱市",
		"name": "墨江县",
		"address": "云南省普洱市墨江哈尼族自治县G8511(昆磨高速)",
		"location": {
			"latitude": 23.300333757875,
			"longitude": 101.39009452036
		},
		"published": true,
		"type": "HELICOPTER",
		"description": ""
	},
	{
		"province": "北京市",
		"city": "北京市",
		"name": "国家会议中心",
		"address": "北京市朝阳区大屯路",
		"location": {
			"latitude": 40.007386084419,
			"longitude": 116.39212289546
		},
		"published": true,
		"type": "HELICOPTER",
		"description": ""
	},
	{
		"province": "海南省",
		"city": "三亚市",
		"name": "蜈支洲岛上篮球场备降场",
		"address": "海南省三亚市市辖区",
		"location": {
			"latitude": 18.317303936986,
			"longitude": 109.77288490703
		},
		"published": true,
		"type": "HELICOPTER",
		"description": ""
	},
	{
		"province": "云南省",
		"city": "普洱市",
		"name": "江城县",
		"address": "云南省普洱市江城哈尼族彝族自治县",
		"location": {
			"latitude": 22.568737655096,
			"longitude": 101.88325268251
		},
		"published": true,
		"type": "HELICOPTER",
		"description": ""
	},
	{
		"province": "云南省",
		"city": "普洱市",
		"name": "普洱市",
		"address": "云南省普洱市思茅区",
		"location": {
			"latitude": 22.785944767064,
			"longitude": 100.91609098229
		},
		"published": true,
		"type": "HELICOPTER",
		"description": ""
	},
	{
		"province": "北京市",
		"city": "北京市",
		"name": "电子城国际电子总部6号院内",
		"address": "北京市朝阳区酒仙桥路",
		"location": {
			"latitude": 39.988403345018,
			"longitude": 116.49730779429
		},
		"published": true,
		"type": "HELICOPTER",
		"description": ""
	},
	{
		"province": "北京市",
		"city": "北京市",
		"name": "宏昌骏体育运动公园",
		"address": "北京市朝阳区",
		"location": {
			"latitude": 40.036544995564,
			"longitude": 116.48408243915
		},
		"published": true,
		"type": "HELICOPTER",
		"description": ""
	},
	{
		"province": "北京市",
		"city": "北京市",
		"name": "长城脚下公社度假村",
		"address": "北京市延庆县",
		"location": {
			"latitude": 40.34655575496,
			"longitude": 116.05970101566
		},
		"published": true,
		"type": "HELICOPTER",
		"description": ""
	},
	{
		"province": "北京市",
		"city": "北京市",
		"name": "康屯镇屯军营村",
		"address": "北京市延庆县政通路",
		"location": {
			"latitude": 40.401090755147,
			"longitude": 115.88592032016
		},
		"published": true,
		"type": "HELICOPTER",
		"description": ""
	},
	{
		"province": "云南省",
		"city": "西双版纳傣族自治州",
		"name": "西双版纳",
		"address": "云南省西双版纳傣族自治州景洪市",
		"location": {
			"latitude": 22.021791368306,
			"longitude": 100.75493294593
		},
		"published": true,
		"type": "HELICOPTER",
		"description": ""
	},
	{
		"province": "黑龙江省",
		"city": "黑河市",
		"name": "北安",
		"address": "黑龙江省黑河市北安市玉山街",
		"location": {
			"latitude": 48.240540740461,
			"longitude": 126.49056868848
		},
		"published": true,
		"type": "HELICOPTER",
		"description": ""
	},
	{
		"province": "四川省",
		"city": "乐山市",
		"name": "峨边羊竹",
		"address": "四川省乐山市峨边彝族自治县铜河路",
		"location": {
			"latitude": 29.251971795288,
			"longitude": 103.27576757483
		},
		"published": true,
		"type": "HELICOPTER",
		"description": ""
	},
	{
		"province": "吉林省",
		"city": "吉林市",
		"name": "船营区越北镇",
		"address": "吉林省吉林市船营区G302(迎宾大路)",
		"location": {
			"latitude": 43.875812702806,
			"longitude": 126.50567578613
		},
		"published": true,
		"type": "HELICOPTER",
		"description": ""
	},
	{
		"province": "浙江省",
		"city": "宁波市",
		"name": "奉化市溪口镇政府溪口风景区",
		"address": "浙江省宁波市奉化市武岭西路",
		"location": {
			"latitude": 29.688186576921,
			"longitude": 121.29225015933
		},
		"published": true,
		"type": "HELICOPTER",
		"description": ""
	},
	{
		"province": "浙江省",
		"city": "宁波市",
		"name": "奉化市溪口镇政府溪口风景区第二停机点",
		"address": "浙江省宁波市奉化市S33",
		"location": {
			"latitude": 29.691497648833,
			"longitude": 121.26563091069
		},
		"published": true,
		"type": "HELICOPTER",
		"description": ""
	},
	{
		"province": "重庆市",
		"city": "重庆市",
		"name": "荣昌大道东段富吉集团",
		"address": "重庆市荣昌县灵方大道",
		"location": {
			"latitude": 29.409446693981,
			"longitude": 105.63572540024
		},
		"published": true,
		"type": "HELICOPTER",
		"description": ""
	},
	{
		"province": "重庆市",
		"city": "重庆市",
		"name": "板桥工业园灵方大道江特表面处理公司",
		"address": "重庆市荣昌县灵方大道",
		"location": {
			"latitude": 29.409236730708,
			"longitude": 105.65053809418
		},
		"published": true,
		"type": "HELICOPTER",
		"description": ""
	},
	{
		"province": "重庆市",
		"city": "重庆市",
		"name": "板桥工业园欧恺电器",
		"address": "重庆市荣昌县板桥路",
		"location": {
			"latitude": 29.412049573801,
			"longitude": 105.6480252054
		},
		"published": true,
		"type": "HELICOPTER",
		"description": ""
	},
	{
		"province": "云南省",
		"city": "红河哈尼族彝族自治州",
		"name": "开远货车销售公司",
		"address": "云南省红河哈尼族彝族自治州开远市G323(瑞临线)",
		"location": {
			"latitude": 23.702863615152,
			"longitude": 103.28418881125
		},
		"published": true,
		"type": "HELICOPTER",
		"description": ""
	},
	{
		"province": "海南省",
		"city": "三亚市",
		"name": "蜈支洲岛外停机点",
		"address": "海南省三亚市市辖区",
		"location": {
			"latitude": 18.278795520368,
			"longitude": 109.73236713753
		},
		"published": true,
		"type": "HELICOPTER",
		"description": ""
	},
	{
		"province": "新疆维吾尔自治区",
		"city": "和田地区",
		"name": "和田市新电力公司",
		"address": "新疆维吾尔自治区和田地区和田市屯垦东路52号",
		"location": {
			"latitude": 37.092534972181,
			"longitude": 79.935556736748
		},
		"published": true,
		"type": "HELICOPTER",
		"description": ""
	},
	{
		"province": "新疆维吾尔自治区",
		"city": "阿克苏地区",
		"name": "好想你枣业公司",
		"address": "新疆维吾尔自治区阿克苏地区阿克苏市上海路",
		"location": {
			"latitude": 41.135703771312,
			"longitude": 80.344196838626
		},
		"published": true,
		"type": "HELICOPTER",
		"description": ""
	},
	{
		"province": "新疆维吾尔自治区",
		"city": "阿克苏地区",
		"name": "柯坪县艾力努尔农业发展有限公司",
		"address": "新疆维吾尔自治区阿克苏地区柯坪县",
		"location": {
			"latitude": 40.51684788691,
			"longitude": 79.026640523726
		},
		"published": true,
		"type": "HELICOPTER",
		"description": ""
	},
	{
		"province": "新疆维吾尔自治区",
		"city": "喀什地区",
		"name": "巴楚县廉美佳果品加工厂",
		"address": "新疆维吾尔自治区喀什地区巴楚县",
		"location": {
			"latitude": 39.808822345153,
			"longitude": 78.541651104699
		},
		"published": true,
		"type": "HELICOPTER",
		"description": ""
	},
	{
		"province": "新疆维吾尔自治区",
		"city": "喀什地区",
		"name": "英吉沙县圣丰种业有限责任公司",
		"address": "新疆维吾尔自治区喀什地区英吉沙县兖周路",
		"location": {
			"latitude": 38.970986751861,
			"longitude": 76.210965140571
		},
		"published": true,
		"type": "HELICOPTER",
		"description": ""
	},
	{
		"province": "北京市",
		"city": "北京市",
		"name": "延庆医院",
		"address": "北京市延庆县北顺城街",
		"location": {
			"latitude": 40.468011436195,
			"longitude": 115.97771247805
		},
		"published": true,
		"type": "HELICOPTER",
		"description": ""
	},
	{
		"province": "北京市",
		"city": "北京市",
		"name": "红廷别墅",
		"address": "北京市朝阳区南皋路",
		"location": {
			"latitude": 40.006714269909,
			"longitude": 116.52625677148
		},
		"published": true,
		"type": "HELICOPTER",
		"description": ""
	},
	{
		"province": "内蒙古自治区古",
		"city": "乌兰察布市",
		"name": "乌兰察布广场",
		"address": "内蒙古自治区乌兰察布市集宁区察哈尔西街",
		"location": {
			"latitude": 41.000061629113,
			"longitude": 113.14012851494
		},
		"published": true,
		"type": "HELICOPTER",
		"description": ""
	},
	{
		"province": "内蒙古自治区古",
		"city": "乌兰察布市",
		"name": "乌兰察布黄花沟",
		"address": "内蒙古自治区乌兰察布市察哈尔右翼中旗",
		"location": {
			"latitude": 41.135250622816,
			"longitude": 112.54486004747
		},
		"published": true,
		"type": "HELICOPTER",
		"description": ""
	},
	{
		"province": "北京市",
		"city": "北京市",
		"name": "北京大学医学部操场",
		"address": "北京市海淀区花园北路61号",
		"location": {
			"latitude": 39.988005506059,
			"longitude": 116.36528137411
		},
		"published": true,
		"type": "HELICOPTER",
		"description": ""
	},
	{
		"province": "河北省",
		"city": "承德市",
		"name": "隆化县黑水村",
		"address": "河北省承德市隆化县",
		"location": {
			"latitude": 41.253629752773,
			"longitude": 117.67834007454
		},
		"published": true,
		"type": "HELICOPTER",
		"description": ""
	},
	{
		"province": "河北省",
		"city": "承德市",
		"name": "承德市锦江文冠宾馆",
		"address": "河北省承德市双桥区",
		"location": {
			"latitude": 40.961135382444,
			"longitude": 117.95215299647
		},
		"published": true,
		"type": "HELICOPTER",
		"description": ""
	},
	{
		"province": "河北省",
		"city": "承德市",
		"name": "宽城县新兴街收费停车场",
		"address": "河北省承德市宽城满族自治县瀑河桥路",
		"location": {
			"latitude": 40.617149341005,
			"longitude": 118.49954028502
		},
		"published": true,
		"type": "HELICOPTER",
		"description": ""
	},
	{
		"province": "河北省",
		"city": "承德市",
		"name": "国家贮备粮库",
		"address": "河北省承德市兴隆县东区大街",
		"location": {
			"latitude": 40.436943124908,
			"longitude": 117.52106566401
		},
		"published": true,
		"type": "HELICOPTER",
		"description": ""
	},
	{
		"province": "河北省",
		"city": "唐山市",
		"name": "遵化工业区唐山荣来成机械有限公司",
		"address": "河北省唐山市遵化市",
		"location": {
			"latitude": 40.192881619064,
			"longitude": 117.93377841216
		},
		"published": true,
		"type": "HELICOPTER",
		"description": ""
	},
	{
		"province": "天津市",
		"city": "天津市",
		"name": "蓟县工业区九华路电管站",
		"address": "天津市蓟县九华路3号",
		"location": {
			"latitude": 39.97708674704,
			"longitude": 117.42525793295
		},
		"published": true,
		"type": "HELICOPTER",
		"description": ""
	},
	{
		"province": "北京市",
		"city": "北京市",
		"name": "平谷夏各庄镇金润牧丰生物营养科技有限公司",
		"address": "北京市平谷区X006(夏鱼路)",
		"location": {
			"latitude": 40.16255801643,
			"longitude": 117.19308197696
		},
		"published": true,
		"type": "HELICOPTER",
		"description": ""
	},
	{
		"province": "江西省",
		"city": "赣州市",
		"name": "信丰县信明电商产业园",
		"address": "江西省赣州市信丰县",
		"location": {
			"latitude": 25.418538519428,
			"longitude": 114.91899110483
		},
		"published": true,
		"type": "HELICOPTER",
		"description": ""
	},
	{
		"province": "江西省",
		"city": "吉安市",
		"name": "盛辉实业有限公司",
		"address": "江西省吉安市峡江县月华路",
		"location": {
			"latitude": 27.567551399993,
			"longitude": 115.31712342804
		},
		"published": true,
		"type": "HELICOPTER",
		"description": ""
	},
	{
		"province": "江西省",
		"city": "宜春市",
		"name": "亚中纺织",
		"address": "江西省宜春市高安市新世纪大道12",
		"location": {
			"latitude": 28.468730436345,
			"longitude": 115.43376622274
		},
		"published": true,
		"type": "HELICOPTER",
		"description": ""
	},
	{
		"province": "江西省",
		"city": "上饶市",
		"name": "余干县污水处理厂",
		"address": "江西省上饶市余干县",
		"location": {
			"latitude": 28.571847589475,
			"longitude": 116.67574315709
		},
		"published": true,
		"type": "HELICOPTER",
		"description": ""
	},
	{
		"province": "江西省",
		"city": "宜春市",
		"name": "靖安合力照明整灯区",
		"address": "江西省宜春市靖安县",
		"location": {
			"latitude": 28.878337395671,
			"longitude": 115.3897538009
		},
		"published": true,
		"type": "HELICOPTER",
		"description": ""
	},
	{
		"province": "江西省",
		"city": "九江市",
		"name": "德安电力开发公司",
		"address": "江西省九江市德安县G105(京珠线)",
		"location": {
			"latitude": 29.304898186184,
			"longitude": 115.73981466519
		},
		"published": true,
		"type": "HELICOPTER",
		"description": ""
	},
	{
		"province": "江西省",
		"city": "九江市",
		"name": "武宁南市供电公司",
		"address": "江西省九江市武宁县万福大道",
		"location": {
			"latitude": 29.240822692033,
			"longitude": 115.1508430728
		},
		"published": true,
		"type": "HELICOPTER",
		"description": ""
	},
	{
		"province": "北京市",
		"city": "北京市",
		"name": "北京科技职业技术学院",
		"address": "北京市昌平区老牛湾路",
		"location": {
			"latitude": 40.123338123451,
			"longitude": 116.25619217098
		},
		"published": true,
		"type": "HELICOPTER",
		"description": ""
	},
	{
		"province": "云南省",
		"city": "临沧市",
		"name": "临沧市蓝天路废纸场",
		"address": "云南省临沧市临翔区茶苑路718号",
		"location": {
			"latitude": 23.904135132355,
			"longitude": 100.10579299298
		},
		"published": true,
		"type": "HELICOPTER",
		"description": ""
	},
	{
		"province": "云南省",
		"city": "楚雄彝族自治州",
		"name": "楚雄市同元门窗工程有限公司",
		"address": "云南省楚雄彝族自治州楚雄市",
		"location": {
			"latitude": 25.019641646511,
			"longitude": 101.62340664058
		},
		"published": true,
		"type": "HELICOPTER",
		"description": ""
	},
	{
		"province": "云南省",
		"city": "大理白族自治州",
		"name": "祥云驼峰酒店有限公司",
		"address": "云南省大理白族自治州祥云县S220(西昌路)",
		"location": {
			"latitude": 25.503103569433,
			"longitude": 100.55162894251
		},
		"published": true,
		"type": "HELICOPTER",
		"description": ""
	},
	{
		"province": "云南省",
		"city": "大理白族自治州",
		"name": "永平县供销社农贸有限公司",
		"address": "云南省大理白族自治州永平县永昌公路",
		"location": {
			"latitude": 25.412907975136,
			"longitude": 99.542208567521
		},
		"published": true,
		"type": "HELICOPTER",
		"description": ""
	},
	{
		"province": "河北省",
		"city": "张家口市",
		"name": "中都草原会场",
		"address": "河北省张家口市张北县",
		"location": {
			"latitude": 41.319065992987,
			"longitude": 114.75346403359
		},
		"published": true,
		"type": "HELICOPTER",
		"description": ""
	},
	{
		"province": "河北省",
		"city": "张家口市",
		"name": "中都草原停机点",
		"address": "河北省张家口市张北县",
		"location": {
			"latitude": 41.305761590247,
			"longitude": 114.75121246138
		},
		"published": true,
		"type": "HELICOPTER",
		"description": ""
	},
	{
		"province": "云南省",
		"city": "大理白族自治州",
		"name": "宾川县国巨绿色有限公司",
		"address": "云南省大理白族自治州宾川县S220(太和路)",
		"location": {
			"latitude": 25.810619329107,
			"longitude": 100.60360824106
		},
		"published": true,
		"type": "HELICOPTER",
		"description": ""
	},
	{
		"province": "云南省",
		"city": "丽江市",
		"name": "丽江市玉龙白沙镇南方航空护林站直升机场",
		"address": "云南省丽江市玉龙纳西族自治县",
		"location": {
			"latitude": 26.968405445184,
			"longitude": 100.24821587427
		},
		"published": true,
		"type": "HELICOPTER",
		"description": ""
	},
	{
		"province": "四川省",
		"city": "攀枝花市",
		"name": "中国重汽攀枝花公司",
		"address": "四川省攀枝花市仁和区",
		"location": {
			"latitude": 26.524339423153,
			"longitude": 101.70785269098
		},
		"published": true,
		"type": "HELICOPTER",
		"description": ""
	},
	{
		"province": "云南省",
		"city": "楚雄彝族自治州",
		"name": "武定华昌物流有限公司",
		"address": "云南省楚雄彝族自治州武定县G5(京昆高速)",
		"location": {
			"latitude": 25.517674324169,
			"longitude": 102.41511088611
		},
		"published": true,
		"type": "HELICOPTER",
		"description": ""
	},
	{
		"province": "云南省",
		"city": "昆明市",
		"name": "宜良海大生物科技有限公司",
		"address": "云南省昆明市宜良县宜九线",
		"location": {
			"latitude": 24.999248306276,
			"longitude": 103.20467724359
		},
		"published": true,
		"type": "HELICOPTER",
		"description": ""
	},
	{
		"province": "云南省",
		"city": "德宏傣族景颇族自治州",
		"name": "芒市大街德顺挖掘机公司",
		"address": "云南省德宏傣族景颇族自治州芒市G320(金孔雀大街)",
		"location": {
			"latitude": 24.461699997753,
			"longitude": 98.588104686023
		},
		"published": true,
		"type": "HELICOPTER",
		"description": ""
	},
	{
		"province": "云南省",
		"city": "德宏傣族景颇族自治州",
		"name": "芒市大街第一小学旁边停车场",
		"address": "云南省德宏傣族景颇族自治州芒市阔时路",
		"location": {
			"latitude": 24.451997485271,
			"longitude": 98.580880782273
		},
		"published": true,
		"type": "HELICOPTER",
		"description": ""
	},
	{
		"province": "云南省",
		"city": "楚雄彝族自治州",
		"name": "元谋县空军招待所后院",
		"address": "云南省楚雄彝族自治州元谋县",
		"location": {
			"latitude": 25.724149091132,
			"longitude": 101.87780796849
		},
		"published": true,
		"type": "HELICOPTER",
		"description": ""
	},
	{
		"province": "云南省",
		"city": "楚雄彝族自治州",
		"name": "元谋县晶菱食品厂",
		"address": "云南省楚雄彝族自治州元谋县",
		"location": {
			"latitude": 25.720355615037,
			"longitude": 101.86094853288
		},
		"published": true,
		"type": "HELICOPTER",
		"description": ""
	},
	{
		"province": "云南省",
		"city": "玉溪市",
		"name": "云南瑞江木业有限公司",
		"address": "云南省玉溪市元江澧江路",
		"location": {
			"latitude": 23.602731101266,
			"longitude": 102.02263653051
		},
		"published": true,
		"type": "HELICOPTER",
		"description": ""
	},
	{
		"province": "江西省",
		"city": "赣州市",
		"name": "信丰县龙津实业有限公司",
		"address": "江西省赣州市信丰县",
		"location": {
			"latitude": 25.420191957382,
			"longitude": 114.9178850732
		},
		"published": true,
		"type": "HELICOPTER",
		"description": ""
	},
	{
		"province": "广西壮族自治区",
		"city": "桂林市",
		"name": "訾洲公园",
		"address": "广西壮族自治区桂林市七星区穿山路",
		"location": {
			"latitude": 25.277760845159,
			"longitude": 110.30827811331
		},
		"published": true,
		"type": "HELICOPTER",
		"description": ""
	},
	{
		"province": "广西壮族自治区",
		"city": "桂林市",
		"name": "飞虎公园",
		"address": "广西壮族自治区桂林市临桂县S306(西城大道)",
		"location": {
			"latitude": 25.220814878809,
			"longitude": 110.16722423066
		},
		"published": true,
		"type": "HELICOPTER",
		"description": ""
	},
	{
		"province": "广西壮族自治区",
		"city": "桂林市",
		"name": "181医院",
		"address": "广西壮族自治区桂林市七星区",
		"location": {
			"latitude": 25.275563670722,
			"longitude": 110.30660885278
		},
		"published": true,
		"type": "HELICOPTER",
		"description": ""
	},
	{
		"province": "海南省",
		"city": "三亚市",
		"name": "海棠湾红树林酒店",
		"address": "海南省三亚市市辖区",
		"location": {
			"latitude": 18.345086192893,
			"longitude": 109.74486235368
		},
		"published": true,
		"type": "HELICOPTER",
		"description": ""
	},
	{
		"province": "海南省",
		"city": "三亚市",
		"name": "半山半岛帆船港",
		"address": "海南省三亚市市辖区鹿回头路",
		"location": {
			"latitude": 18.217218511971,
			"longitude": 109.49208241863
		},
		"published": true,
		"type": "HELICOPTER",
		"description": ""
	},
	{
		"province": "云南省",
		"city": "大理白族自治州",
		"name": "苍山高尔夫直升机停机坪",
		"address": "云南省大理白族自治州大理市",
		"location": {
			"latitude": 25.653596384569,
			"longitude": 100.32619798667
		},
		"published": true,
		"type": "HELICOPTER",
		"description": ""
	},
	{
		"province": "北京市",
		"city": "北京市",
		"name": "东升会起降点",
		"address": "北京市海淀区西小口路",
		"location": {
			"latitude": 40.055879816463,
			"longitude": 116.37079093161
		},
		"published": true,
		"type": "HELICOPTER",
		"description": ""
	},
	{
		"province": "黑龙江省",
		"city": "伊春市",
		"name": "农场",
		"address": "黑龙江省伊春市铁力市阳光路",
		"location": {
			"latitude": 47.016425592996,
			"longitude": 128.0546584418
		},
		"published": true,
		"type": "HELICOPTER",
		"description": ""
	},
	{
		"province": "河北省",
		"city": "石家庄市",
		"name": "白鹿温泉度假村停车场",
		"address": "河北省石家庄市平山县",
		"location": {
			"latitude": 38.255397304432,
			"longitude": 113.99106768916
		},
		"published": true,
		"type": "HELICOPTER",
		"description": ""
	},
	{
		"province": "黑龙江省",
		"city": "绥化市",
		"name": "开发区北慧鑫铁制品有限公司",
		"address": "黑龙江省绥化市海伦市海伦支线",
		"location": {
			"latitude": 47.494894458878,
			"longitude": 126.95523415962
		},
		"published": true,
		"type": "HELICOPTER",
		"description": ""
	},
	{
		"province": "河北省",
		"city": "石家庄市",
		"name": "金博士种业有限公司",
		"address": "河北省石家庄市藁城市振兴北街",
		"location": {
			"latitude": 38.038403092557,
			"longitude": 114.89904832472
		},
		"published": true,
		"type": "HELICOPTER",
		"description": ""
	},
	{
		"province": "北京市",
		"city": "北京市",
		"name": "国家会议中心前马路",
		"address": "北京市朝阳区大屯路",
		"location": {
			"latitude": 40.008276487169,
			"longitude": 116.39711102953
		},
		"published": true,
		"type": "HELICOPTER",
		"description": ""
	},
	{
		"province": "河北省",
		"city": "邢台市",
		"name": "金丰工贸有限公司",
		"address": "河北省邢台市任县",
		"location": {
			"latitude": 37.152743282127,
			"longitude": 114.66596130122
		},
		"published": true,
		"type": "HELICOPTER",
		"description": ""
	},
	{
		"province": "广东省",
		"city": "湛江市",
		"name": "生态工业聚集区",
		"address": "广东省湛江市徐闻县G207(锡海线)",
		"location": {
			"latitude": 20.423834331257,
			"longitude": 110.14204373032
		},
		"published": true,
		"type": "HELICOPTER",
		"description": ""
	},
	{
		"province": "广东省",
		"city": "湛江市",
		"name": "徐闻体育馆",
		"address": "广东省湛江市徐闻县Y052",
		"location": {
			"latitude": 20.296830381938,
			"longitude": 110.20947203826
		},
		"published": true,
		"type": "HELICOPTER",
		"description": ""
	},
	{
		"province": "吉林省",
		"city": "吉林市",
		"name": "船营区私人工厂",
		"address": "吉林省吉林市船营区S101(吉长北线)",
		"location": {
			"latitude": 43.897553607708,
			"longitude": 126.50093365921
		},
		"published": true,
		"type": "HELICOPTER",
		"description": ""
	},
	{
		"province": "河北省",
		"city": "张家口市",
		"name": "张家口市一中",
		"address": "河北省张家口市桥西区长青路65",
		"location": {
			"latitude": 40.83566517274,
			"longitude": 114.8957999787
		},
		"published": true,
		"type": "HELICOPTER",
		"description": ""
	},
	{
		"province": "海南省",
		"city": "三亚市",
		"name": "海棠湾红树林酒店",
		"address": "海南省三亚市市辖区",
		"location": {
			"latitude": 18.345080217557,
			"longitude": 109.74486696345
		},
		"published": true,
		"type": "HELICOPTER",
		"description": ""
	},
	{
		"province": "海南省",
		"city": "三亚市",
		"name": "半山半岛帆船港",
		"address": "海南省三亚市市辖区鹿回头路",
		"location": {
			"latitude": 18.21721525672,
			"longitude": 109.49208241837
		},
		"published": true,
		"type": "HELICOPTER",
		"description": ""
	},
	{
		"province": "云南省",
		"city": "大理白族自治州",
		"name": "苍山高尔夫直升机停机坪",
		"address": "云南省大理白族自治州大理市",
		"location": {
			"latitude": 25.653595300282,
			"longitude": 100.32620232692
		},
		"published": true,
		"type": "HELICOPTER",
		"description": ""
	},
	{
		"province": "北京市",
		"city": "北京市",
		"name": "东升会起降点",
		"address": "北京市海淀区西小口路",
		"location": {
			"latitude": 40.055876722325,
			"longitude": 116.37080009927
		},
		"published": true,
		"type": "HELICOPTER",
		"description": ""
	},
	{
		"province": "河北省",
		"city": "唐山市",
		"name": "迁安燕山医院",
		"address": "河北省唐山市迁安市钢城大街",
		"location": {
			"latitude": 40.003260894856,
			"longitude": 118.72260910881
		},
		"published": true,
		"type": "HELICOPTER",
		"description": ""
	},
	{
		"province": "河北省",
		"city": "石家庄市",
		"name": "石家庄广场",
		"address": "河北省石家庄市桥西区裕华西路88-3",
		"location": {
			"latitude": 38.040666808428,
			"longitude": 114.47509230773
		},
		"published": true,
		"type": "HELICOPTER",
		"description": ""
	},
	{
		"province": "北京市",
		"city": "北京市",
		"name": "永乐店高速公路",
		"address": "北京市通州区永乐停车区",
		"location": {
			"latitude": 39.647930873932,
			"longitude": 116.82069388439
		},
		"published": true,
		"type": "HELICOPTER",
		"description": ""
	},
	{
		"province": "山东省",
		"city": "济南市",
		"name": "章丘人民医院",
		"address": "山东省济南市章丘市百脉泉街",
		"location": {
			"latitude": 36.718636321928,
			"longitude": 117.5450477469
		},
		"published": true,
		"type": "HELICOPTER",
		"description": ""
	},
	{
		"province": "黑龙江省",
		"city": "哈尔滨市",
		"name": "消防大队",
		"address": "黑龙江省哈尔滨市方正县西环路",
		"location": {
			"latitude": 46.005706111966,
			"longitude": 129.25177526983
		},
		"published": true,
		"type": "HELICOPTER",
		"description": ""
	},
	{
		"province": "黑龙江省",
		"city": "牡丹江市",
		"name": "富兴地毯有限公司",
		"address": "黑龙江省牡丹江市穆棱市兴河路",
		"location": {
			"latitude": 44.937880618801,
			"longitude": 130.49681233144
		},
		"published": true,
		"type": "HELICOPTER",
		"description": ""
	},
	{
		"province": "黑龙江省",
		"city": "牡丹江市",
		"name": "铕赫食品有限公司",
		"address": "黑龙江省牡丹江市阳明区丹江路",
		"location": {
			"latitude": 44.628671158706,
			"longitude": 129.68680774841
		},
		"published": true,
		"type": "HELICOPTER",
		"description": ""
	},
	{
		"province": "山西省",
		"city": "晋中市",
		"name": "榆社县乾通物流装卸有限公司",
		"address": "山西省晋中市榆社县漳源大道",
		"location": {
			"latitude": 37.054770115468,
			"longitude": 112.96592614248
		},
		"published": true,
		"type": "HELICOPTER",
		"description": ""
	},
	{
		"province": "河北省",
		"city": "邢台市",
		"name": "机械仓库",
		"address": "河北省邢台市任县永康街",
		"location": {
			"latitude": 37.150008382166,
			"longitude": 114.67485591157
		},
		"published": true,
		"type": "HELICOPTER",
		"description": ""
	},
	{
		"province": "河北省",
		"city": "邢台市",
		"name": "雅诰图塑料制品有限公司",
		"address": "河北省邢台市任县永康街",
		"location": {
			"latitude": 37.150055534306,
			"longitude": 114.67902357957
		},
		"published": true,
		"type": "HELICOPTER",
		"description": ""
	},
	{
		"province": "河北省",
		"city": "石家庄市",
		"name": "温塘铁路温泉度假村",
		"address": "河北省石家庄市平山县S301",
		"location": {
			"latitude": 38.269356316049,
			"longitude": 113.99606326174
		},
		"published": true,
		"type": "HELICOPTER",
		"description": ""
	},
	{
		"province": "河北省",
		"city": "石家庄市",
		"name": "正洋汽车贸易公司后院停车场",
		"address": "河北省石家庄市行唐县",
		"location": {
			"latitude": 38.434556592216,
			"longitude": 114.52260272002
		},
		"published": true,
		"type": "HELICOPTER",
		"description": ""
	},
	{
		"province": "河北省",
		"city": "石家庄市",
		"name": "藁城区永安快捷酒店后院",
		"address": "河北省石家庄市藁城市G307(迎宾大道)",
		"location": {
			"latitude": 38.034688948984,
			"longitude": 114.84059763241
		},
		"published": true,
		"type": "HELICOPTER",
		"description": ""
	},
	{
		"province": "河北省",
		"city": "石家庄市",
		"name": "原种场",
		"address": "河北省石家庄市高邑县",
		"location": {
			"latitude": 37.640416004409,
			"longitude": 114.6193601688
		},
		"published": true,
		"type": "HELICOPTER",
		"description": ""
	},
	{
		"province": "河北省",
		"city": "保定市",
		"name": "高速公路养护管理处",
		"address": "河北省保定市定州市G107(京深线)",
		"location": {
			"latitude": 38.515512445457,
			"longitude": 115.02803816415
		},
		"published": true,
		"type": "HELICOPTER",
		"description": ""
	},
	{
		"province": "海南省",
		"city": "海口市",
		"name": "美源国际游艇会",
		"address": "海南省海口市龙华区红棉东路东段",
		"location": {
			"latitude": 20.040896047969,
			"longitude": 110.31330281623
		},
		"published": true,
		"type": "HELICOPTER",
		"description": ""
	},
	{
		"province": "广东省",
		"city": "湛江市",
		"name": "杏磊湾温泉度假村",
		"address": "广东省湛江市徐闻县",
		"location": {
			"latitude": 20.279065925304,
			"longitude": 110.20889670283
		},
		"published": true,
		"type": "HELICOPTER",
		"description": ""
	},
	{
		"province": "北京市",
		"city": "北京市",
		"name": "地坛医院分院",
		"address": "北京市顺义区X006(李魏路)",
		"location": {
			"latitude": 40.105091796208,
			"longitude": 116.76528966827
		},
		"published": true,
		"type": "HELICOPTER",
		"description": ""
	},
	{
		"province": "广西壮族自治区",
		"city": "桂林市",
		"name": "象山公园",
		"address": "广西壮族自治区桂林市秀峰区滨江路",
		"location": {
			"latitude": 25.276972114254,
			"longitude": 110.30493699034
		},
		"published": true,
		"type": "HELICOPTER",
		"description": ""
	},
	{
		"province": "河北省",
		"city": "唐山市",
		"name": "足球场",
		"address": "河北省唐山市玉田县旭升路",
		"location": {
			"latitude": 39.885532561138,
			"longitude": 117.78053550858
		},
		"published": true,
		"type": "HELICOPTER",
		"description": ""
	},
	{
		"province": "河北省",
		"city": "保定市",
		"name": "保定第一中心医院",
		"address": "河北省保定市北市区长城北大街275号",
		"location": {
			"latitude": 38.879569368835,
			"longitude": 115.52024223649
		},
		"published": true,
		"type": "HELICOPTER",
		"description": ""
	},
	{
		"province": "山西省",
		"city": "吕梁市",
		"name": "广场",
		"address": "山西省吕梁市汾阳市迎新正街",
		"location": {
			"latitude": 37.268157401767,
			"longitude": 111.78502283238
		},
		"published": true,
		"type": "HELICOPTER",
		"description": ""
	},
	{
		"province": "山东省",
		"city": "菏泽市",
		"name": "足球场",
		"address": "山东省菏泽市牡丹区西安路",
		"location": {
			"latitude": 35.24967805111,
			"longitude": 115.44514333199
		},
		"published": true,
		"type": "HELICOPTER",
		"description": ""
	},
	{
		"province": "河北省",
		"city": "邢台市",
		"name": "广场",
		"address": "河北省邢台市清河县新世纪大街21号",
		"location": {
			"latitude": 37.048043016834,
			"longitude": 115.67357936401
		},
		"published": true,
		"type": "HELICOPTER",
		"description": ""
	},
	{
		"province": "黑龙江省",
		"city": "伊春市",
		"name": "农场",
		"address": "黑龙江省伊春市铁力市阳光路",
		"location": {
			"latitude": 47.016425395223,
			"longitude": 128.05464973425
		},
		"published": true,
		"type": "HELICOPTER",
		"description": ""
	},
	{
		"province": "河北省",
		"city": "石家庄市",
		"name": "白鹿温泉度假村停车场",
		"address": "河北省石家庄市平山县",
		"location": {
			"latitude": 38.25539727298,
			"longitude": 113.9910652583
		},
		"published": true,
		"type": "HELICOPTER",
		"description": ""
	},
	{
		"province": "河北省",
		"city": "张家口市",
		"name": "太舞滑雪场",
		"address": "河北省张家口市崇礼县",
		"location": {
			"latitude": 40.897412609906,
			"longitude": 115.46025146067
		},
		"published": true,
		"type": "HELICOPTER",
		"description": ""
	},
	{
		"province": "河北省",
		"city": "张家口市",
		"name": "县医院停车场",
		"address": "河北省张家口市怀来县燕京路",
		"location": {
			"latitude": 40.422248774731,
			"longitude": 115.5394132173
		},
		"published": true,
		"type": "HELICOPTER",
		"description": ""
	},
	{
		"province": "河北省",
		"city": "张家口市",
		"name": "医学院操场",
		"address": "河北省张家口市桥西区",
		"location": {
			"latitude": 40.850453913945,
			"longitude": 114.87543998067
		},
		"published": true,
		"type": "HELICOPTER",
		"description": ""
	},
	{
		"province": "广东省",
		"city": "湛江市",
		"name": "杏磊湾温泉度假村草坪",
		"address": "广东省湛江市徐闻县G207(锡海线)",
		"location": {
			"latitude": 20.278194096168,
			"longitude": 110.21195599934
		},
		"published": true,
		"type": "HELICOPTER",
		"description": ""
	},
	{
		"province": "河北省",
		"city": "衡水市",
		"name": "饶阳中学体育场",
		"address": "河北省衡水市饶阳县",
		"location": {
			"latitude": 38.257135420473,
			"longitude": 115.74597998527
		},
		"published": true,
		"type": "HELICOPTER",
		"description": ""
	},
	{
		"province": "黑龙江省",
		"city": "绥化市",
		"name": "开发区北慧鑫铁制品有限公司",
		"address": "黑龙江省绥化市海伦市海伦支线",
		"location": {
			"latitude": 47.494895606426,
			"longitude": 126.95523983278
		},
		"published": true,
		"type": "HELICOPTER",
		"description": ""
	},
	{
		"province": "河北省",
		"city": "石家庄市",
		"name": "金博士种业有限公司",
		"address": "河北省石家庄市藁城市振兴北街",
		"location": {
			"latitude": 38.03840087274,
			"longitude": 114.89905539188
		},
		"published": true,
		"type": "HELICOPTER",
		"description": ""
	},
	{
		"province": "北京市",
		"city": "北京市",
		"name": "东单体育中心足球场",
		"address": "北京市东城区崇文门内大街甲106号",
		"location": {
			"latitude": 39.912620091613,
			"longitude": 116.42378131263
		},
		"published": true,
		"type": "HELICOPTER",
		"description": ""
	},
	{
		"province": "北京市",
		"city": "北京市",
		"name": "国家会议中心前马路",
		"address": "北京市朝阳区大屯路",
		"location": {
			"latitude": 40.008278867721,
			"longitude": 116.3971039959
		},
		"published": true,
		"type": "HELICOPTER",
		"description": ""
	},
	{
		"province": "河北省",
		"city": "邢台市",
		"name": "金丰工贸有限公司",
		"address": "河北省邢台市任县",
		"location": {
			"latitude": 37.152742197715,
			"longitude": 114.66596075958
		},
		"published": true,
		"type": "HELICOPTER",
		"description": ""
	},
	{
		"province": "广东省",
		"city": "湛江市",
		"name": "生态工业聚集区",
		"address": "广东省湛江市徐闻县G207(锡海线)",
		"location": {
			"latitude": 20.42384003302,
			"longitude": 110.14204400427
		},
		"published": true,
		"type": "HELICOPTER",
		"description": ""
	},
	{
		"province": "广东省",
		"city": "湛江市",
		"name": "徐闻体育馆",
		"address": "广东省湛江市徐闻县Y052",
		"location": {
			"latitude": 20.296830345323,
			"longitude": 110.20947475767
		},
		"published": true,
		"type": "HELICOPTER",
		"description": ""
	},
	{
		"province": "吉林省",
		"city": "吉林市",
		"name": "船营区私人工厂",
		"address": "吉林省吉林市船营区S101(吉长北线)",
		"location": {
			"latitude": 43.897551708793,
			"longitude": 126.50093365908
		},
		"published": true,
		"type": "HELICOPTER",
		"description": ""
	},
	{
		"province": "陕西",
		"city": "西安市",
		"name": "陕西自然博物馆",
		"address": "西安市陕西自然博物馆",
		"location": {
			"latitude": 34.202185,
			"longitude": 108.953293
		},
		"published": true,
		"type": "HELICOPTER",
		"description": ""
	},
	{
		"province": "陕西",
		"city": "西安市",
		"name": "陕西省体育训练中心",
		"address": "陕西省体育训练中心",
		"location": {
			"latitude": 34.207917,
			"longitude": 108.89149
		},
		"published": true,
		"type": "HELICOPTER",
		"description": ""
	},
	{
		"province": "陕西",
		"city": "西安市",
		"name": "品味高尔夫会所",
		"address": "西安市品味高尔夫会所",
		"location": {
			"latitude": 34.386852,
			"longitude": 108.880854
		},
		"published": true,
		"type": "HELICOPTER",
		"description": ""
	},
	{
		"province": "陕西",
		"city": "西安市",
		"name": "马赛克藏馆",
		"address": "西安市马赛克藏馆",
		"location": {
			"latitude": 34.377557,
			"longitude": 108.978877
		},
		"published": true,
		"type": "EMERGENCT",
		"description": ""
	},
	{
		"province": "陕西",
		"city": "西安市",
		"name": "西安城市运动公园",
		"address": "西安市城市运动公园",
		"location": {
			"latitude": 34.350619,
			"longitude": 108.949269
		},
		"published": true,
		"type": "EMERGENCT",
		"description": ""
	},
	{
		"province": "陕西",
		"city": "西安市",
		"name": "西安电子科技大学",
		"address": "西安电子科技大学",
		"location": {
			"latitude": 34.129303,
			"longitude": 108.840035
		},
		"published": true,
		"type": "HELICOPTER",
		"description": "西北工业大学"
	},
	{
		"province": "陕西",
		"city": "西安市",
		"name": "西安咸阳国际机场",
		"address": "西安咸阳国际机场",
		"location": {
			"latitude": 34.441887,
			"longitude": 108.767021
		},
		"published": true,
		"type": "HELICOPTER",
		"description": "西北工业大学"
	},
	{
		"province": "陕西",
		"city": "西安市",
		"name": "西北工业大学",
		"address": "西北工业大学",
		"location": {
			"latitude": 34.250539,
			"longitude": 108.921673
		},
		"published": true,
		"type": "HELICOPTER",
		"description": "西北工业大学"
	}
]
